주차장명,주소,주차구획수,위도,경도
남새싹5길,인천광역시 부평구 부평동 747-3,5,37.48903538,126.720057
화랑로,인천광역시 부평구 산곡동 371-82,54,37.4936086,126.702259
늘봄1길,인천광역시 부평구 부평동 767-190,5,37.48719899,126.7138465
남부역1길,인천광역시 부평구 부평동 610-3,10,37.48791539,126.7281473
산곡배움2길,인천광역시 부평구 산곡동 311-102,8,37.4934246,126.7060426
경인로1024번길,"인천광역시 부평구 부개동 240-5,6번지 일원",20,37.486148,126.7330149
무지개아파트옆,인천광역시 부평구 산곡동 254-3,13,37.50072123,126.7044694
남부고가,"인천광역시 부평구 부평동 738-2, 5번지 일원",30,37.4890468,126.717625
사랑샘공원,인천광역시 부평구 삼산동 497,101,37.52087835,126.7364054
청천2동,인천광역시 부평구 청천동 178-17,18,37.51473881,126.7051042
삼산해돋이,인천광역시 부평구 삼산동 428-1,48,37.5169041,126.7334848
일신동,인천광역시 부평구 일신동 171-7,6,37.48173752,126.7423648
길주로339번길,인천광역시 부평구 산곡동 산132,27,37.50984136,126.6981245
부평시장대정,인천광역시 부평구 부평동 374-5,105,37.4971589,126.724511
인천나비공원,인천광역시 부평구 청천동 125-3,107,37.520771,126.6981589
부원,인천광역시 부평구 부평동 341-193,111,37.49171809,126.7191122
부평깡시장,인천광역시 부평구 부평동 416-9,128,37.49867037,126.726853
부평삼거리역,인천광역시 부평구 십정동 576-9,73,37.4775567,126.7096235
수변로85번길,인천광역시 부평구 부개동 120-74,29,37.49463026,126.739602
하모리 제주은행맞은편,제주특별자치도 서귀포시 대정읍 하모리 846-11,18,33.22143941,126.253279
아랑조을거리주차장,제주특별자치도 서귀포시 서귀동 312-6,37,33.247784,126.560306
성산읍사무소 옆,제주특별자치도 서귀포시 성산읍 고성리 1022-8,31,33.442407,126.911426
쇠소깍,제주특별자치도 서귀포시 하효동 990-1,54,33.254249,126.622494
고성리 원광어린이집 인근,제주특별자치도 서귀포시 성산읍 고성리 1089,15,33.449139,126.910826
천지공영주차빌딩,제주특별자치도 서귀포시 서귀동 305-1,220,33.25152344,126.5593512
우산동주민센터,광주광역시 북구 우산동 264-2,14,35.17030369,126.9209384
풍향동주민센터,광주광역시 북구 풍향동 597-11,8,35.16447448,126.9232702
문화동주민센터,광주광역시 북구 각화동 224-12,7,35.18149708,126.9368598
문흥1동주민센터,광주광역시 북구 문흥동 996-6,8,35.18676652,126.9216296
문흥2동주민센터,광주광역시 북구 문흥동 1010-9,14,35.18432223,126.9219174
두암1동주민센터,광주광역시 북구 두암동 877-10,20,35.17103696,126.9289643
두암2동주민센터,광주광역시 북구 두암동 825-9,20,35.17460117,126.9325311
두암3동주민센터,광주광역시 북구 두암동 249,17,35.16301813,126.9347535
삼각동주민센터,광주광역시 북구 삼각동 791-4,23,35.19926457,126.8994886
일곡동주민센터,광주광역시 북구 일곡동 849-4,11,35.20603007,126.8972795
일곡동주민센터,광주광역시 북구 일곡동 849-5,9,35.20602282,126.8972795
매곡동주민센터,광주광역시 북구 매곡동 80,7,35.18963533,126.8920694
오치1동주민센터,광주광역시 북구 오치동 941-2,19,35.18910416,126.9081312
오치2동주민센터,광주광역시 북구 오치동 861-6,18,35.19004634,126.9004838
석곡동주민센터,광주광역시 북구 망월동 668-3,14,35.21501557,126.9500443
건국동주민센터,광주광역시 북구 본촌동 378-1,19,35.22294676,126.8816343
양산동주민센터,광주광역시 북구 양산동 1019-1,8,35.20916495,126.8796423
신안동 공영주차장,광주광역시 북구 신안동 120-2외 1필지,19,35.164144,126.905295
삼각동 일곡엘리체 공영주차장,광주광역시 북구 삼각동 837,46,35.19674368,126.8981828
본촌동 공영주차장,광주광역시 북구 본촌동 2931,28,35.21652283,126.8788846
유동 쌈지,광주광역시 북구 유동 103-4,8,35.160841,126.905949
본촌동 쌈지주차장,광주광역시 북구 유동 103-4,7,35.16083147,126.9059242
운암어린이공원 지하공영주차장,광주광역시 북구 운암동 95,56,35.17405645,126.8814556
남도향토음식박물관 옆 공영주차장,광주광역시 북구 삼각동 781-3,33,35.201204,126.8985704
중흥3구역 1주차장,광주광역시 북구 중흥동 280-4,82,35.17308222,126.9138092
중흥3구역 2주차장,광주광역시 북구 중흥동 361-17,64,35.17295579,126.9134756
화봉공원,울산광역시 북구 화봉동 445-1,129,35.58943549,129.3648249
윗소사,경기도 부천시 소사본동 179,171,37.47405869,126.7945737
중앙공원,경기도 부천시 중동 1177-1,982,37.50136599,126.7653349
춘의동 임시,경기도 부천시 춘의동 212-8,56,37.49888209,126.7858161
한신철골,경기도 부천시 소사본동 200-1,216,37.47312398,126.7980175
난장,경기도 부천시 상동 529-2,300,37.50905498,126.7456182
복사골문화센터,경기도 부천시 상동 394-2,182,37.49478407,126.7542147
소사어울마당,경기도 부천시 소사본동 64,239,37.48004701,126.799948
송내어울마당,경기도 부천시 송내동 387-4,118,37.48250133,126.7665427
용운동 일반통행길(하행길),대전광역시 동구 용운동 447-6~489-7번지선,21,36.3270641,127.4500077
용운동 일방통행길(상행길),대전광역시 동구 용운동 487~451-18,38,36.3270641,127.4500077
원평동소공원,경상북도 구미시 원평동 1078,42,36.133805,128.329268
공단구조화,경상북도 구미시 공단동 295-16,26,36.09563111,128.3891969
공단구조화,경상북도 구미시 공단동 296-34,26,36.09513126,128.3905316
공단구조화,경상북도 구미시 공단동 295-31,26,36.09464264,128.3886475
공단구조화,경상북도 구미시 공단동 296-29,26,36.100151,128.367643
도시계획,경상북도 구미시 공단동 282-84,124,36.09815989,128.3685496
LG디스플레이A3,경상북도 구미시 공단동 299-1,198,36.0905966,128.3851995
시민행복주차장,"경상북도 고아읍 봉한리 911-113,911-154",130,36.11572157,128.4247777
구미시 임시 화물차 주차장,경상북도 구미시 고아읍 원호리 304-1,70,36.11572157,128.4247777
지구단위계획,경상북도 구미시 고아읍 이례리 390,18,36.11572157,128.4247777
시민행복주차장,경상북도 구미시 공단동 111,163,36.11572157,128.4247777
시민행복주차장,경상북도 구미시 공단동 265-29,101,36.11572157,128.4247777
심곡본동철골,경기도 부천시 심곡본동 656,172,37.48088675,126.7796898
심곡지하,경기도 부천시 심곡동 159,160,37.48916435,126.7847181
안중근공원,경기도 부천시 중동 1167,96,37.5032811,126.7602214
오정2호,"경기도 부천시 오정동 609-2,3",144,37.524308,126.7836257
오정도서관 부지,경기도 부천시 오정동 160-11,80,37.5275834,126.794314
오정산업단지,경기도 부천시 오정동 760,69,37.5309523,126.7801852
원미지하,경기도 부천시 원미동 127-5,143,37.49196507,126.7873104
원미철골,경기도 부천시 원미동 134-15,48,37.4926107,126.7851627
원종철골,"경기도 부천시 원종동 277-16,17,18",82,37.52507359,126.8052172
구미보건소,경상북도 구미시 지산동 853-12,47,36.13993541,128.3459536
선산보건소,경상북도 구미시 선산읍 동부리 700-1,12,36.24398836,128.2998946
농업기술센타,경상북도 구미시 선산읍 이문리 509,40,36.23357132,128.2895919
평생교육원,경상북도 구미시 공단동 256-17,49,36.1055052,128.3839004
농산물도매시장,경상북도 구미시 고아읍 문성리 513,581,36.15676365,128.349917
선산읍사무소,경상북도 구미시 선산읍 완전리 59-2,10,36.24327351,128.2992348
매일올레시장공영주차장,제주특별자치도 서귀포시 서귀동 277-1,234,33.250138,126.5632316
용머리주차장 북서측,제주특별자치도 서귀포시 안덕면 사계리 163-1,39,33.235943,126.3119127
대정하모 공영노외2주차장,제주특별자치도 서귀포시 대정읍 하모리 964-2,14,33.2230301,126.252066
걸매생태공원,제주특별자치도 서귀포시 서홍동 477-1,79,33.250536,126.554619
제일교회 부근,제주특별자치도 서귀포시 대정읍 하모리 1129-1,5,33.222216,126.249797
대정하모 공영노외3주차장,제주특별자치도 서귀포시 대정읍 하모리 1512-1,14,33.223864,126.252502
고성오일장 옆,제주특별자치도 서귀포시 성산읍 고성리 1188-2,97,33.45186232,126.9128147
소방파출소,제주특별자치도 서귀포시 성산읍 오조리 933,67,33.4602884,126.9096477
민속촌 주차장,제주특별자치도 서귀포시 표선면 표선리 40-77,150,33.32128714,126.8430882
성읍민속마을,제주특별자치도 서귀포시 표선면 성읍리 778,87,33.384967,126.800901
매일올레시장입구,제주특별자치도 서귀포시 서귀동 276-19,22,33.24957191,126.5629168
하모3리마을회관 옆,제주특별자치도 서귀포시 대정읍 하모리 1077-1,14,33.221643,126.249635
중앙로터리 공영주차빌딩,제주특별자치도 서귀포시 서귀동 298-2,120,33.25167869,126.560439
정방폭포,제주특별자치도 서귀포시 동홍동 277,62,33.24460547,126.5732253
상모아파트 앞,제주특별자치도 서귀포시 대정읍 상모리 3970-2,13,33.222557,126.257335
여성회관 북쪽,제주특별자치도 서귀포시 서귀동 321-5,28,33.24959972,126.558497
고성리 회전교차로,제주특별자치도 서귀포시 성산읍 고성리 346-2,76,33.44655575,126.9157493
법환동 재활용도움센터 옆,제주특별자치도 서귀포시 법환동 1063,20,33.240292,126.507801
회수사거리,제주특별자치도 서귀포시 회수동 788-2,18,33.263075,126.442507
10-2 새설봉사거리,경기도 이천시 중리동 3-6,23,37.27842078,127.437772
실버 중앙사거리,경기도 이천시 창전동 151-14,23,37.28160625,127.4427702
중리천로공영주차장,경기도 이천시 중리동 180-2,34,37.2802784,127.4422167
생태1주차장,경기도 이천시 모가면 어농리 871-3,27,37.17960623,127.4453047
생태2주차장,경기도 이천시 모가면 어농리 871-3,60,37.17960623,127.4453047
후문주차장,경기도 이천시 모가면 어농리 871-3,28,37.17960623,127.4453047
임시주차장,경기도 이천시 모가면 어농리 871-3,50,37.17960623,127.4453047
송악산,제주특별자치도 서귀포시 대정읍 상모리 165,16,33.205956,126.288894
남원리 구 오일장마당,제주특별자치도 서귀포시 남원읍 남원리 84-2,38,33.278819,126.721448
성산체육관,제주특별자치도 서귀포시 성산읍 오조리 1365-1,93,33.4667584,126.9045603
군민체육관,제주특별자치도 서귀포시 남원읍 남원리 2337-1,52,33.27740522,126.7033506
표선 시가지내,제주특별자치도 서귀포시 표선면 표선리 634-28,19,33.324977,126.833806
성산일출봉 주차장,제주특별자치도 서귀포시 성산읍 성산리 114-3,251,33.46260347,126.935333
산방산 주차장,제주특별자치도 서귀포시 안덕면 사계리 166-4,31,33.236268,126.312628
삼성의원 앞,제주특별자치도 서귀포시 대정읍 하모리 841-58,8,33.2203064,126.253256
돔베낭골,제주특별자치도 서귀포시 호근동 1619,58,33.24016844,126.531879
천지연주차장,제주특별자치도 서귀포시 서홍동 684,190,33.2438797,126.5605559
문부공원,제주특별자치도 서귀포시 동홍동 646-1,35,33.25398814,126.5706943
용머리 주차장 서측,제주특별자치도 서귀포시 안덕면 사계리 118,58,33.23379281,126.3108416
월드컵경기장,제주특별자치도 서귀포시 법환동 914,723,33.24706692,126.507363
주안4동제6노외주차장,인천광역시 미추홀구 주안동 1511-38,4,37.453177,126.685958
거창축협 유료주차장,경상남도 거창군 거창읍 상림리 131-3,30,35.6858047,127.909927
5-2 관고사거리(구.세무서),경기도 이천시 관고동 14-13,22,37.281706,127.4386395
6-1 중리동주민센터아래,경기도 이천시 중리동 193-12,28,37.27930013,127.442627
6-2 중리동주민센터앞,경기도 이천시 중리동 186-4,24,37.278643,127.442023
7-1 명동타운옆,경기도 이천시 중리동 203,19,37.278881,127.444412
7-2 남천공원입구,경기도 이천시 중리동 190-6,25,37.27842943,127.443198
8-2 터미널공영,경기도 이천시 중리동 462-3,45,37.27756732,127.448105
8-3 터미널뒤,경기도 이천시 중리동 221,17,37.2768559,127.4475908
8-4 안흥지건너편,경기도 이천시 중리동 463-5,17,37.276813,127.4489526
8-5 기아오토랜드앞,경기도 이천시 중리동 468-4,32,37.276012,127.449332
8-6 파티마병원뒤,경기도 이천시 중리동 468-17,30,37.275157,127.4499082
8-7 청솔공원앞,경기도 이천시 중리동 468-11,29,37.275539,127.449449
9-1 우리은행옆,경기도 이천시 창전동 147-6,8,37.281061,127.446637
9-2 나우한결내과앞,경기도 이천시 창전동 457-21,21,37.280914,127.447626
9-3 분수대오거리1,경기도 이천시 창전동 463-19,12,37.28043296,127.447127
9-4 분수대오거리2,경기도 이천시 창전동 463-1,18,37.28042481,127.447369
9-5 농협하나로마트앞,경기도 이천시 창전동 458-4,8,37.28116529,127.4486321
10-1 설봉공원입구,경기도 이천시 관고동 25-4,27,37.27943839,127.437406
광평복개천일방통행로,경상북도 구미시 송정동 501,274,36.11702097,128.3472638
중앙도서관주변,경상북도 구미시 형곡동 227-2,50,36.11508006,128.3360065
이계천,경상북도 구미시 진평동 645,103,36.1047513,128.401274
1단지기업사랑,경상북도 구미시 공단동 140,76,36.11541592,128.3796531
원호택지개발,경상북도 구미시 고아읍 원호리 470,12,36.1504447,128.3296797
원호택지개발,경상북도 구미시 고아읍 원호리 445,13,36.14974851,128.3312014
옥계1택지개발,경상북도 구미시 옥계동 553-6,31,36.14759078,128.417451
옥계2택지개발,경상북도 구미시 옥계동 640-3,73,36.13799603,128.415786
옥계2택지개발,경상북도 구미시 거의동 612-4,16,36.13750196,128.412137
봉곡구획정리,경상북도 구미시 봉곡동 151-2,37,36.15546466,128.3076257
봉곡구획정리,경상북도 구미시 봉곡동 213-6,29,36.1526308,128.314225
봉곡구획정리,경상북도 구미시 봉곡동 569,41,36.15090096,128.3079941
봉곡구획정리,경상북도 구미시 봉곡동 284-5,50,36.1495841,128.3113122
구평택지개발,경상북도 구미시 구평동 480-11,49,36.09353586,128.4332904
구평택지개발,경상북도 구미시 구평동 449-1,51,36.09300254,128.432956
구평택지개발,경상북도 구미시 구평동 443-1,46,36.09490984,128.4352875
동락공원,경상북도 구미시 진평동 766,388,36.09945079,128.4017505
형곡시장프라자앞,경상북도 구미시 형곡동 147-1,40,36.11302919,128.3342573
송정초등학교앞,경상북도 구미시 송정동 485,40,36.11374661,128.3491514
황상복개천,경상북도 구미시 황상동 248,130,36.11732519,128.4255956
무을상송주차장,경상북도 구미시 무을면 상송리 746-4,81,36.26984858,128.1588615
중앙시장,경상북도 구미시 원평동 166-8,22,36.13179869,128.330914
중앙시장2,경상북도 구미시 원평동 112-1,46,36.13149131,128.3296986
동산주차장,광주광역시 동구 금남로5가 75-2,34,35.15355791,126.9125786
삼성주차장,"광주광역시 동구 호남동 37-4, 10",26,35.14865455,126.9126409
신광주차장,광주광역시 동구 광산동 74,12,35.14643406,126.9184858
창성주차장,"광주광역시 동구 지산동 714-67,69",14,35.1512345,126.9317301
금촌주차장,"광주광역시 동구 금남로4가 38,37-4",14,35.1511331,126.9152472
대일주차장,광주광역시 동구 대인동 85,40,35.15284518,126.9141817
이화주차장,광주광역시 동구 용산동 636-42,62,35.1189038,126.9329971
황금알주차장,광주광역시 동구 서석동 125-1,18,35.1433911,126.9224171
군산앞바다주차장,광주광역시 동구 산수동 518-2,5,35.15377996,126.9328556
모든주차장,광주광역시 동구 수기동 33-9,30,35.14983897,126.9102121
황금알주차장,"광주광역시 동구 서석동 470-8,999-14,470-48",24,35.1433564,126.9235808
금남주차장,광주광역시 동구 궁동 56,26,35.15016833,126.917051
황금알주차장,"광주광역시 동구 서석동 470-31, 470-33",26,35.1432056,126.9238571
스타주차장,광주광역시 동구 불로동 17,36,35.14607087,126.9146366
대광주차장,광주광역시 동구 남동 34-2,18,35.14476581,126.920094
광주토끼주차장,광주광역시 동구 대인동 29-10,4,35.15391265,126.9145581
웨딩의거리무인주차장,광주광역시 동구 불로동 97-7,27,35.1456685,126.9160111
서석동 공영주차장,광주광역시 동구 서석동 24-2,29,35.1444875,126.9240817
한국주차장,"광주광역시 동구 지산동 720-17,18",13,35.1510667,126.9300751
태평주차장,광주광역시 동구 호남동 42-3,10,35.1471105,126.9129631
스마일주차장,광주광역시 동구 호남동 37-10,24,35.14865428,126.9126396
송도동 노상2,경상북도 포항시 남구 송도동 386-2,41,36.0415964,129.3728613
중앙주차장,광주광역시 동구 궁동 34-7,7,35.15039207,126.9182783
지산주차장,광주광역시 동구 금남로4가 21,29,35.15060325,126.9151191
신평주차장,"광주광역시 동구 호남동 43-13,21",8,35.147214,126.9124459
금남전자상가주차장,광주광역시 동구 금남로5가 1-5,76,35.15382435,126.9120823
미소주차장,광주광역시 동구 광산동 79-3,14,35.14618499,126.9180427
대각주차장,광주광역시 동구 대인동 79,11,35.1533452,126.9146472
그랜드주차장,광주광역시 동구 불로동 121,31,35.14557462,126.9165026
한화생명보험㈜광주사옥,광주광역시 동구 대인동 185-1 한화생명보험,119,35.15269643,126.9180494
에스원주차장,광주광역시 동구 남동 33-1,50,35.14472985,126.9202345
한일빌딩주차장,광주광역시 동구 학동 67,58,35.1411286,126.9211291
동명주차장,광주광역시 동구 지산동 715-27,20,35.15018533,126.9328454
고려자동차공업사주차장,광주광역시 동구 계림동 531-7,12,35.16004748,126.9174054
문화주차장,광주광역시 동구 지산동 715-27 동명빌딩,30,35.15018533,126.9328454
두산주차장,광주광역시 동구 학동 901-145,6,35.13401021,126.9248665
동진주차장,광주광역시 동구 불로동 181-3,6,35.1445066,126.9150937
금정주차장,광주광역시 동구 지산동 342-64,8,35.15106195,126.933749
현대주차장,광주광역시 동구 금동 184,18,35.14215143,126.9194382
도원주차장,광주광역시 동구 서석동 91,16,35.14528635,126.9221741
계8주차장,광주광역시 동구 계림동 489-15,16,35.15763804,126.9168548
지산주차장,"광주광역시 동구 지산동 716-31,32,33,37",16,35.1498832,126.9318136
추선장학회주차장,광주광역시 동구 대인동 163,65,35.15179429,126.9169045
금남주차장,광주광역시 동구 궁동 56,26,35.15016833,126.917051
억만이주차장,광주광역시 동구 계림동 577-7,22,35.15938508,126.9188812
서부신시가지 롯데마트뒤,전라북도 전주시 완산구 효자동2가 1229-2,42,35.817565,127.1032854
농협중앙회,전라북도 전주시 완산구 효자동3가 1529-13,51,35.81762512,127.1078265
도청옆,전라북도 전주시 완산구 효자동3가 1530-7,46,35.81761757,127.1101946
서부신시가지 서곡방면,전라북도 전주시 완산구 효자동3가 1589-6,28,35.828448,127.097802
정읍.고창방면 만남의광장,전라북도 전주시 완산구 효자동2가 925-1,84,35.801807,127.092018
산외주차장,전라북도 정읍시 산외면 평사리 438-4,43,35.62115727,127.0432433
수성주차장,전라북도 정읍시 수성동 524-20,99,35.569776,126.8508446
삼화그린주차장,전라북도 정읍시 시기동 194-25,54,35.567059,126.8503324
중앙로주차장,전라북도 정읍시 시기동 204-14,94,35.565876,126.852012
연지주차장,전라북도 정읍시 연지동 258-1,97,35.571175,126.845318
역광장 제2주차장,전라북도 정읍시 연지동 343-88,30,35.576219,126.844021
시기주차장,전라북도 정읍시 시기동 364,87,35.565688,126.855909
진안학천동,전라북도 진안군 진안읍 군상리 507-2,20,35.7929467,127.424684
진안중앙1,전라북도 진안군 진안읍 군상리 888,61,35.7931987,127.424684
진안중앙2,전라북도 진안군 진안읍 군상리 938-9,45,35.7920096,127.424684
삼리길,"경기도 안산시 상록구 사동 1547,(~1548)",74,37.304524,126.845051
민방위훈련장앞노상,경기도 안산시 상록구 월피동 445,34,37.328323,126.844238
다농마트노상,경기도 안산시 상록구 월피동 445-35,10,37.328616,126.844261
양지편길,"경기도 안산시 상록구 이동 712-2,(~715-13)",79,37.307011,126.847951
중보길,"경기도 안산시 상록구 이동 716-15,(~721-2)",78,37.307356,126.850516
백운역북광장,인천광역시 부평구 십정동 173-11,28,37.4839258,126.7073091
노랑다리,인천광역시 부평구 산곡동 391-18,43,37.50360605,126.7008096
삼산5차,인천광역시 부평구 삼산동 508,37,37.5202111,126.7483837
세월천골,인천광역시 부평구 청천동 366-39,19,37.514021,126.6990126
굴포천1차,인천광역시 부평구 부평동 255-1,238,37.4947095,126.7204751
부영길,인천광역시 부평구 부평동 758-26,62,37.4859255,126.7156691
묏골,인천광역시 부평구 산곡동 51-32,132,37.513192,126.7003689
희망로,경기도 성남시 수정구 단대동 129 단대어린이집,57,37.44964525,127.1556651
양지 제1,경기도 성남시 수정구 양지동 724,192,37.45760562,127.1590995
홍산라이브광장,전라북도 전주시 완산구 효자동3가 1533-13,122,35.81641226,127.107681
전주비보이광장,전라북도 전주시 완산구 효자동3가 1538-9,124,35.81643505,127.1103468
내동마을 공동주차장,경상남도 창녕군 이방면 안리 854-1,50,35.57694525,128.3876007
양지 제2,경기도 성남시 수정구 양지동 865-1,110,37.45528609,127.1606724
산성동 제1,경기도 성남시 수정구 산성동 2223 산성동제1공영주차장,109,37.45163183,127.1523239
단대 공원,경기도 성남시 수정구 산성동 507 단대공원공영주차장,147,37.45705541,127.1554861
산성동 제2,경기도 성남시 수정구 수정로 46번길 86,116,37.4502905,127.1455437
산성역 환승,경기도 성남시 수정구 산성동 6,225,37.45666153,127.1507202
복정 3호,경기도 성남시 수정구 복정동 707 복정동4호 공영주차장,284,37.46173843,127.1272242
복정 4호,경기도 성남시 수정구 복정동 707 복정동4호 공영주차장,196,37.45466888,127.1290839
복정 제5,경기도 성남시 수정구 복정동 688,220,37.45659231,127.1268013
수정,경기도 성남시 수정구 신흥동 37 공영주차장,71,37.44971199,127.1457155
신흥 제1,경기도 성남시 수정구 신흥동 6593 공영주차장,66,37.4388208,127.1395247
신흥 2동,경기도 성남시 수정구 신흥동 466 신흥2동공영주차장,199,37.44839239,127.149022
신흥 3동,경기도 성남시 수정구 신흥동 2473 신흥3동공영주차장,71,37.44275675,127.1509951
신흥 제7,경기도 성남시 수정구 신흥동 5542-2 신흥제7공영주차장,276,37.44179956,127.1369764
태평4동 제1,경기도 성남시 수정구 태평동 7300-3 태평4동제1공영주차장,97,37.44710477,127.1439927
태평,경기도 성남시 수정구 태평동 3752-4,135,37.44511353,127.1332352
태평동 제1,경기도 성남시 수정구 제일로 236,119,37.44717951,127.1292157
태평2동 제1,경기도 성남시 수정구 태평동3307-59,95,37.4460621,127.139003
태평4동제3,경기도 성남시 수정구 태평동 7289 금빛초등학교,163,37.44734677,127.1405577
아래숯골,경기도 성남시 수정구 태평동 6812 성남수정경찰서,150,37.44228797,127.1266624
태평4동,경기도 성남시 수정구 태평동 1-3 태평4동공영주차장,89,37.45123428,127.1385804
건우,경기도 성남시 수정구 태평동 224-4,153,37.4511916,127.13318
태평동 탄천변,경기도 성남시 수정구 탄천로 558,91,37.4408002,127.1206884
수진 제1,경기도 성남시 수정구 수진동 1294-1 수진제1공영주차장,119,37.43684866,127.1339166
수진 제2,경기도 성남시 수정구 수진동 4510-3 수진동주차장,165,37.43534918,127.1340856
수진 제3,경기도 성남시 수정구 수진동 1282 수진제3공영주차장,223,37.43814679,127.1333223
수진동 제4,경기도 성남시 수정구 수진동 4671-2외1필지,101,37.4372101,127.1262448
번성,경기도 성남시 수정구 수진동 3042-1 번성공영주차장,180,37.43915276,127.1296912
수정보건소 부설,경기도 성남시 수정구 신흥동 3435 수정구보건소,206,37.44432957,127.1440597
복정제6공영주차장,경기도 성남시 수정구 복정동 649 복정도서관,112,37.46375601,127.1278652
신흥제9공영주차장,경기도 성남시 수정구 시민로 173,179,37.44339097,127.1423583
신흥2동제1공영주차장,경기도 성남시 수정구 신흥동 2440,151,37.4479332,127.1535495
대원천,경기도 성남시 중원구 성남동 4596-1,222,37.4291231,127.1195821
성남동 대형,경기도 성남시 중원구 성남동 4596-1,565,37.42890932,127.1201186
성남동 제1,경기도 성남시 중원구 성남동 2876 성일고등학교,388,37.434032,127.1450957
성남동 제2,경기도 성남시 중원구 성남동 2963,251,37.4329539,127.1421171
대원지하,경기도 성남시 중원구 상대원동 4251 대원초등학교,153,37.43667139,127.1550994
상대원 제4,경기도 성남시 중원구 상대원동 1115,283,37.43588515,127.1661178
상대원 3동,경기도 성남시 중원구 상대원동 788 상대원3동공영주차장,108,37.44085696,127.1648226
금광1동 제1,경기도 성남시 중원구 금광동 2450-3 금광1동제1공영주차장,124,37.44305962,127.1695057
홍길동숯불갈비,울산광역시 북구 연암동 1093-8,27,35.58120998,129.3685543
금광2동 제2,경기도 성남시 중원구 금광동 4635 제2공영주차장,134,37.45048649,127.1599433
임시주차장,광주광역시 동구 금남로5가 124-1,13,35.1513886,126.912577
제이유료주차장,광주광역시 동구 금남로5가 77-3,10,35.153273,126.9126287
방부주차장,"광주광역시 동구 계림동 293-15,293-16",10,35.1574239,126.9191553
온누리주차장,광주광역시 동구 지산동 717-36,10,35.15017417,126.932244
홍림주차장,"광주광역시 동구 학동 276-2, 97-6",10,35.13222095,126.9357567
대동주차장,광주광역시 동구 금남로5가 116-1,10,35.15191313,126.9116146
용산역주차장,광주광역시 동구 월남동 345,46,35.10703912,126.9333766
금남지하상가 지하주차장,광주광역시 동구 금남로1가 12-7 금남지하상가,107,35.14783761,126.9200208
장흥주차장,"광주광역시 동구 지산동 714-31,714-32",9,35.15094243,126.9327789
전자상가주차장,"광주광역시 동구 금남로5가 85-7,8,9,84",28,35.15317245,126.9130356
정민주차장,광주광역시 동구 서석동 10-20,4,35.1464497,126.9259991
새중앙주차장,광주광역시 동구 광산동 86-2,1,35.14593195,126.9170729
중앙주차장,광주광역시 동구 호남동 48,20,35.1470773,126.9122722
열린산업주차장,광주광역시 동구 동명동 209-42,8,35.153733,126.9227527
24시 유료주차장,광주광역시 동구 광산동 100-12,9,35.14571625,126.9179905
빵빵주차장,광주광역시 동구 충장로5가 80-1,96,35.1508428,126.9110148
현대주차장,광주광역시 동구 지산동 717-20,10,35.15052391,126.9322525
동명주차장,광주광역시 동구 동명동 245-16,36,35.1536664,126.920339
금일주차장,광주광역시 동구 지산동 717-35,10,35.15026431,126.9322395
무등주차장,"광주광역시 동구 지산동 712-30, 712-31",8,35.15212524,126.9331862
억만이주차장,광주광역시 동구 계림동 577-7,14,35.15938508,126.9188812
계림주차장,광주광역시 동구 계림동 487-20,12,35.1580176,126.9180315
시의회옆,경기도 부천시 중동 1159-4,57,37.5027473,126.7643131
삼성동 동구보건소 담길,대전광역시 동구 삼성동 374-1번지 옆,25,36.3428521,127.4205171
삼성동 동산교회 앞길(오정철로길),대전광역시 동구 삼성동 379-1~384-14번지선,50,36.3394225,127.4251098
삼성동 삼성물류센터 주변,대전광역시 동구 삼성동 395번지 주변,31,36.3429344,127.4152138
삼성동 삼성철교,대전광역시 동구 삼성동 솔랑마을@ 뒤,25,36.3394225,127.4251098
삼성동 중부소방서 주변,대전광역시 동구 태전로137번길(삼성동 322-4),17,36.3395544,127.4206863
"삼성동 한국아파트 주변(현암로18번길, 태전로174번 안길)","대전광역시 동구 삼성동 373, 382,383번지 주변",21,36.3440667,127.4182355
삼정동구정골마을공영주차장,대전광역시 동구 삼정동 70번지,10,36.3261259,127.4753721
성남동 효촌아파트 담길,"대전광역시 동구 효촌A 209,210,211동 담길",45,36.3118844,127.4548329
신안동 한국철도시설공단 뒷길,대전광역시 동구 신안동 262~293번지선,82,36.3298818,127.4372204
신흥동 복합상가건물 뒤,대전광역시 동구 신흥동 12-8~13-5번지선,8,36.3229824,127.4438856
신흥삼거리~제1치수교,대전광역시 동구 충무로길(구 신흥동사무소 앞),25,36.3118844,127.4548329
심영목재상사 앞,대전광역시 동구 삼성동 296-19,17,36.3391703,127.4288991
용운동 도리어린이공원 주변,대전광역시 동구 용운동 284번지 주변,19,36.329381,127.4615276
용운동 모리아파트 담길,대전광역시 동구 용운동 319-1번지 앞,9,36.323047,127.4619276
"용운동 삼정하이츠, 문충사 주변","대전광역시 동구 용운동 363, 356-1번지선",41,36.3261834,127.4579521
용운동 선량마을 노상주차장,대전광역시 동구 용운동 54,5,36.3366621,127.4653206
하가지구 나그네교회 앞,전라북도 전주시 덕진구 덕진동 653-1,29,35.85339036,127.131618
송천2동 시영아파트 옆,전라북도 전주시 덕진구 송천동2가 1257,170,35.868255,127.113119
호성동 만남의광장,전라북도 전주시 덕진구 호성동2가 631-12,30,35.867441,127.147521
우아1동 홈플러스 뒤,전라북도 전주시 덕진구 우아동3가 747-10,88,35.848066,127.1542662
우아1동 공영주차장,전라북도 전주시 덕진구 우아동3가 746-4,28,35.8493129,127.1573228
아중지구 부영APT옆,전라북도 전주시 덕진구 우아동1가 1098-9,88,35.825419,127.171632
아중지구 롯데APT옆,전라북도 전주시 덕진구 우아동2가 889,70,35.831586,127.1706162
아중지구 밀레니엄 옆,전라북도 전주시 덕진구 우아동2가 920-1,73,35.83152828,127.172963
인후3동 진버들,전라북도 전주시 덕진구 인후동1가 807-6,106,35.8363209,127.164735
건산천2,전라북도 전주시 덕진구 금암동 456-12,68,35.83294201,127.1347648
인후1동안골,전라북도 전주시 덕진구 인후동1가 781-7,32,35.8355004,127.154604
금호주차장,광주광역시 동구 충장로5가 100-6,18,35.1525283,126.9090059
다촌주차장,광주광역시 동구 광산동 100-36,28,35.14591128,126.9184907
동구주차장,광주광역시 동구 용산동 262-4,41,35.11963209,126.9317208
프렌드주차장,광주광역시 동구 지산동 709-38,9,35.148998,126.9367308
선민주차장,광주광역시 동구 충장로5가 25,11,35.15127899,126.9121948
불로주차장,광주광역시 동구 불로동 51-2,6,35.1456812,126.9133991
궁동주차장,광주광역시 동구 궁동 17-7,19,35.1509297,126.9197167
자연생활주차장,"광주광역시 동구 궁동 21-2, 21-1",15,35.15034306,126.9195223
회관주차장,광주광역시 동구 대인동 62-1,15,35.15304059,126.9152044
남도주차장,광주광역시 동구 남동 167-3,60,35.144751,126.9192496
우아2동 아중택지개발지구,전라북도 전주시 덕진구 산정동 862,80,35.837556,127.168407
동물원,전라북도 전주시 덕진구 덕진동1가 72,840,35.85730635,127.1440769
송천1동 송천도서관,전라북도 전주시 덕진구 송천동2가 292,34,35.869365,127.128111
송천2동 용소초교,전라북도 전주시 덕진구 송천동1가 844-9,17,35.86135501,127.1180147
건산천1,전라북도 전주시 덕진구 진북동 434-34,78,35.831874,127.1347943
인후공원,전라북도 전주시 덕진구 우아동3가 산111-3,64,35.84341911,127.163767
신명,울산광역시 북구 신명동 332-9,24,35.62695804,129.4420161
효죽이면,울산광역시 북구 효문동 958-16,15,35.56540523,129.3729512
상방공원 이면,울산광역시 북구 연암동 1095-8,63,35.58384178,129.3677606
상방마을이면,울산광역시 북구 연암동 1095-8,4,35.58384178,129.3677606
벽산반점 앞,울산광역시 북구 연암동 376-5,33,35.58399048,129.3665715
성원아파트 이면,울산광역시 북구 연암동 1097-2,23,35.58649171,129.3645728
벽산아파트 이면,울산광역시 북구 연암동 1097-5,34,35.5851762,129.3645395
효성학원 뒤,울산광역시 북구 연암동 1095-6,15,35.58399048,129.3665715
21세기학원 뒤 노상,울산광역시 북구 연암동 1092-4,38,35.58778148,129.3708399
효문노상,울산광역시 북구 화봉동 961-3,141,35.58987657,129.3712729
일취월장학원 노상,울산광역시 북구 화봉동 957-5,21,35.59102327,129.3607658
동울산세무소 이면,울산광역시 북구 화봉동 957-10,20,35.58705151,129.3597054
화봉토속정 노상,울산광역시 북구 화봉동 957-11,15,35.5873179,129.3608575
농소3동주민센터,울산광역시 북구 상안동 381-11,21,35.62901117,129.3384147
금광공영주차장,경기도 성남시 중원구 광명로 366,54,37.44627147,127.166525
금광2동 제1,경기도 성남시 중원구 금빛로69번길 18,280,37.44788906,127.1644013
자혜,경기도 성남시 중원구 자혜로 72번길 9,195,37.45071659,127.1681307
은행2동 제3,경기도 성남시 중원구 은행로9,227,37.45491505,127.1631716
은행동 제5,경기도 성남시 중원구 자혜로 115,229,37.45269342,127.1718828
은행1동 제2,경기도 성남시 중원구 금빛로 112번길 35,135,37.4531949,127.1690268
은행2동 제4,경기도 성남시 중원구 순환로379번길 19,230,37.45668625,127.1721948
은행동 제6,경기도 성남시 중원구 자혜로17번길 44-7,89,37.45384735,127.1638248
은행동 제7,경기도 성남시 중원구 은행로 32번길 5,102,37.45454493,127.1649792
은행동 제8,경기도 성남시 중원구 은이로16번길 10,142,37.45666744,127.1651782
은행동 제9,경기도 성남시 중원구 은이로63번길 8,130,37.45661039,127.1698302
상대원 제1,경기도 성남시 중원구 사기막골로45번길 42,234,37.43890924,127.1684613
은행1,경기도 성남시 중원구 자혜로 55,152,37.4515464,127.1649507
모라중학교 지하(노외),부산광역시 사상구 모라동 1348,136,35.19067059,128.9924437
감전역 역세권 공영주차장,부산광역시 사상구 모라동 1348,215,35.19067059,128.9924437
남동주차장,"광주광역시 동구 남동 98-2,3,6,96-2",36,35.14411706,126.9204327
광주주차장,광주광역시 동구 대의동 3-1,22,35.15008759,126.9203083
금정주차장,광주광역시 동구 지산동 342-64,6,35.15106195,126.933749
남동주차장,"광주광역시 동구 금동 40,41,42",42,35.1439763,126.916275
남도주차장,광주광역시 동구 금동 47-7,28,35.14418236,126.9157052
수련주차장,광주광역시 동구 산수동 553-105,14,35.15466239,126.9312525
순창주차장,광주광역시 동구 불로동 100-4,8,35.1454581,126.9148523
전대주차장,광주광역시 동구 학동 118,11,35.14211952,126.9202459
남도주차장,광주광역시 동구 계림동277-1,80,35.1567355,126.9198155
매일주차장,광주광역시 동구 대인동85,20,35.15284518,126.9141817
글로벌주차장,광주광역시 동구 금남로 5가 6-2,40,35.1538642,126.911216
시민행복주차장,경상북도 구미시 형곡동 318-8,10,36.11572157,128.4247777
시민행복주차장,"경상북도 구미시 황상동 268-8,9",23,36.11572157,128.4247777
선산출장소,경상북도 구미시 선산읍 동부리 542-3,71,36.24339426,128.3002505
올림픽기념관,경상북도 구미시 원평동 964-451,207,36.12353449,128.3289376
시민운동장,경상북도 구미시 광평동 277,236,36.11159755,128.3541364
박정희체육관,경상북도 구미시 광평동 50,483,36.110714,128.354031
중앙도서관,경상북도 구미시 형곡동 142,27,36.11379634,128.3352232
인동도서관,경상북도 구미시 진평동 14,56,36.09943382,128.4236692
선산도서관,경상북도 구미시 선산읍 동부리 318-3,53,36.23884675,128.304883
봉곡도서관,경상북도 구미시 봉곡동 566,60,36.15275079,128.3072498
선산문화회관,경상북도 구미시 선산읍 동부리 698-5,57,36.24385928,128.304117
덕진광장,전라북도 전주시 덕진구 덕진동1가 1278-1,33,35.844154,127.1240375
송천2동 주민자치센터,전라북도 전주시 덕진구 송천동1가 830-1,17,35.829393,127.134326
송천2동공원,전라북도 전주시 덕진구 송천동1가 816-2,13,35.864516,127.118132
인후2동금평,전라북도 전주시 덕진구 인후동2가 1537-2,26,35.8430137,127.1453213
아중지구 산림청 옆,전라북도 전주시 덕진구 인후동1가 907-2,62,35.82632995,127.1626078
인후2동건지,전라북도 전주시 덕진구 인후동2가 1559-16,26,35.8466072,127.148226
나눔제12호,경기도 시흥시 산현동 513(P1),19,37.3758173,126.8462909
군산.익산 만남의광장,전라북도 전주시 덕진구 용정동 50-1,52,35.8750205,127.056677
정암주차장,광주광역시 동구 지산동 709-19,15,35.1491541,126.9339852
시네마주차장,광주광역시 동구 충장로5가 68-1,79,35.14972498,126.9121086
평화주차장,광주광역시 동구 계림동 289-4,30,35.15861067,126.9200366
월드주차장,광주광역시 동구 동명동 159-10,10,35.15121236,126.9257769
일성주차장,광주광역시 동구 충장로4가 57,10,35.1491843,126.912298
우진주차장,광주광역시 동구 금동 187-2,7,35.14256932,126.9189242
뉴경마주차장,광주광역시 동구 계림동 577-8,14,35.15951827,126.9185737
KT 주차장,광주광역시 동구 서석동 17-13,4,35.14603432,126.924772
월드주차장,광주광역시 동구 불로동 17,24,35.14607087,126.9146366
진주주차장,광주광역시 동구 계림동 485-3,23,35.1564558,126.9177668
한마음주차장,광주광역시 동구 서석동 7-18,5,35.14560583,126.9256811
궁동주차장,"광주광역시 동구 궁동 52, 52-7",11,35.1499631,126.9184674
대박주차장,광주광역시 동구 계림동 298-14,11,35.15554537,126.9190123
고려주차장,광주광역시 동구 계림동 465-40,7,35.1564983,126.9184906
동송공용주차장,강원도 철원군 동송읍 이평리 675-1,114,38.208027,127.220775
에너지공원주차장,강원도 철원군 동송읍 이평리 848-34,66,38.206801,127.214819
동송읍사무소 앞,강원도 철원군 동송읍 이평리 860-15,22,38.206385,127.209847
개나리아파트주차장,강원도 철원군 동송읍 이평리 586,104,38.201294,127.223882
천하주차장,"광주광역시 동구 금남로1가 15-1, 19-22",46,35.14743296,126.9187614
동산주차장,광주광역시 동구 금남로5가 75-2,30,35.15355791,126.9125786
삼복주차장,광주광역시 동구 계림동 337-5,18,35.15448253,126.9201679
중앙로주차장,"광주광역시 동구 장동 15-10, 15-5",20,35.15257787,126.9186728
신동아주차장,"광주광역시 동구 불로동 11-7, 11-10",10,35.14635214,126.9147065
청해주차장,"광주광역시 동구 지산동 715-18,17,16",12,35.14951817,126.9325738
동산주차장,광주광역시 동구 지산동 717-21,16,35.15039766,126.9321516
삼성생명주차장,광주광역시 동구 금남로 5가 55-1,11,35.1532748,126.9100064
현대주차장,광주광역시 동구 금동 183-1,18,35.14215143,126.9194382
효성주차장,광주광역시 동구 호남동 39-11,17,35.1474174,126.9130139
충오주차장,"광주광역시 동구 충장로5가 100-16,100-10",16,35.1523239,126.9093269
전일주차장,광주광역시 동구 대의동 72,20,35.14835987,126.9192345
중앙주차장,광주광역시 동구 대의동 26,16,35.14938104,126.9204802
신흥주차장,광주광역시 동구 충장로 46번길 14,72,35.14972498,126.9121086
동문주차장,광주광역시 동구 장동 17-4,14,35.15269027,126.919621
봉황주차장,"광주광역시 동구 계림동 556-13, 556-14",10,35.1626759,126.9174949
삼성주차장,광주광역시 동구 황금동 78-21,16,35.14633577,126.9170944
경마주차장,"광주광역시 동구 계림동 296-7, 464-9",14,35.1562673,126.9188669
실내체육관,전라북도 전주시 덕진구 덕진동1가 664-14,150,35.84420741,127.1292618
덕진공원,전라북도 전주시 덕진구 덕진동1가 1316-2,70,35.84749476,127.1210312
무진장방면 만남의광장,전라북도 전주시 덕지구 산정동 326-4,75,35.84213528,127.1758765
월드컵경기장,전라북도 전주시 덕진구 반월동 763-1,4,35.8680573,127.0645192
종합경기장,전라북도 전주시 덕진구 덕진동1가 1220,638,35.84075454,127.127127
가련산,전라북도 전주시 덕진구 덕진동2가 224-3,40,35.845469,127.120302
한대앞역환승,경기도 안산시 상록구 이동 622-3,270,37.310569,126.851519
주택가 주차장,경기도 안산시 상록구 일동 102-18,20,37.314944,126.872064
주택가 주차장,경기도 안산시 상록구 일동 124,10,37.311775,126.868513
주택가 주차장,경기도 안산시 상록구 일동 546-4,9,37.318907,126.861918
주택가 주차장,경기도 안산시 상록구 일동 625-4,9,37.306776,126.871544
일동 112호,경기도 안산시 상록구 일동 632-7,42,37.309739,126.868366
주택가 주차장,경기도 안산시 상록구 일동 91-2,7,37.311202,126.867302
팔곡이동 128호,경기도 안산시 상록구 팔곡이동 508-4,112,37.2945439,126.87759
팔곡동 48호,경기도 안산시 상록구 팔곡이동 607,40,37.296948,126.877017
팔곡이동 129호,경기도 안산시 상록구 팔곡이동 608,110,37.297115,126.874877
시청부설주차장,경기도 안산시 단원구 고잔동 515,652,37.322131,126.830243
단원구청 및 단원보건소 부설주차장,경기도 안산시 단원구 초지동 666-2,442,37.319779,126.811755
상록구청부설주차장,경기도 안산시 상록구 사동 1585,400,37.301336,126.8464096
노하마을주차장,전라북도 장수군 장수읍 노하리 877,28,35.651437,127.5149935
장수시장주차장,전라북도 장수군 장수읍 장수리 452-4,29,35.649787,127.518538
우체국앞주차장,전라북도 장수군 장수읍 장수리 456-8,32,35.64903024,127.5193999
장수경찰서옆주차장,전라북도 장수군 장수읍 장수리 705-27,27,35.646796,127.517196
의암공원입구주차장,전라북도 장수군 장수읍 두산리 728-40,6,35.64331311,127.517598
천변주차장,전라북도 장수군 장수읍 장수리 210-5,67,35.64782362,127.5208204
하가지구 리드빌딩,전라북도 전주시 덕진구 덕진동2가 694-1,28,35.841311,127.111283
하가지구 풍경안경원 옆,전라북도 전주시 덕진구 덕진동 677-7,28,35.8422224,127.110542
하가지구 소소빌딩뒤,전라북도 전주시 덕진구 덕진동2가 654-8,27,35.846689,127.109772
하가지구 초담불고기 뒤,전라북도 전주시 덕진구 덕진동2가 663-1,29,35.846001,127.110478
하가지구 하가홈마트 뒤,전라북도 전주시 덕진구 덕진동 669-8,28,35.84330766,127.1097145
범일2동-업무지-2구간,부산광역시 동구 범일동 830-240,1,35.13842132,129.0655668
범일2동-업무지-3구간,부산광역시 동구 범일동 355-7,5,35.13505717,129.0611816
범일2동-업무지-5구간,부산광역시 동구 범일동 590-5,7,35.13574371,129.0604485
범1-5(주거지),부산광역시 동구 범일동 1368-1,9,35.1388698,129.055731
범일5동-업무지-1구간,부산광역시 동구 범일동 252-1691,20,35.13017922,129.0572018
범일5동-업무지-3구간,부산광역시 동구 범일동 252-997,11,35.13307981,129.0572704
수1-1(주거지),부산광역시 동구 수정동 1048-778,3,35.12565538,129.0375768
수1-3(주거지),부산광역시 동구 수정동 1011-13,8,35.12565292,129.0413632
수3-1(주거지),부산광역시 동구 수정동 856-5,7,35.13292321,129.0439492
수3-2(주거지),부산광역시 동구 수정동 708-14,15,35.13271179,129.0417368
중앙동 제5,경기도 성남시 중원구 광명로194번길 28,136,37.43726778,127.1509841
중앙동 제1,경기도 성남시 중원구 희망로 443,252,37.44437414,127.1571594
중앙동 제2,경기도 성남시 중원구 광명로256번길 36,124,37.44013985,127.1568025
중앙동 제3,경기도 성남시 중원구 희망로367번길 38 인근,140,37.43869425,127.1543452
중앙동 제4,경기도 성남시 중원구 광명로242번길 20,239,37.44064337,127.1548645
해오름,경기도 성남시 중원구 광명로264번길 39,531,37.44109187,127.1590917
은행동 제10,경기도 성남시 중원구 은이로 11,221,37.45757837,127.1658177
모란공영,경기도 성남시 중원구 둔촌대로 68번길,603,37.4306401,127.1371232
중원어린이도서관부설주차장,경기도 성남시 중원구 산성대로 408번길 42,151,37.44762767,127.1631694
야탑동 제1,경기도 성남시 분당구 야탑로 337,140,37.40748884,127.1554062
야탑 제1환승,경기도 성남시 분당구 성남대로 920,111,37.41206876,127.1291734
야탑 제2환승,경기도 성남시 분당구 성남대로 919,126,37.4117563,127.1281653
맛고을,경기도 성남시 분당구 야탑로111번길 12-14,210,37.41165862,127.1317843
점골,경기도 성남시 분당구 불정로 419,202,37.37694545,127.1399836
정자전원마을,경기도 성남시 분당구 불곡로13번길 6,118,37.35921975,127.124509
월피동 29호,경기도 안산시 상록구 월피동 483-10,182,37.338576,126.850056
주택가 주차장,경기도 안산시 상록구 월피동 496-2,19,37.337458,126.843874
주택가 주차장,경기도 안산시 상록구 월피동 514-14,10,37.333651,126.8453192
이동 115호,경기도 안산시 상록구 이동 190-7,41,37.312607,126.856255
주택가 주차장,경기도 안산시 상록구 이동 541-7,10,37.310501,126.861052
이동 주택가주차장,경기도 안산시 상록구 이동 549-12,10,37.309329,126.864162
진흥5길(신촌길),"경기도 안산시 단원구 고잔동 707,(~718)",126,37.31230984,126.827702
진흥1길(광덕로),"경기도 안산시 단원구 고잔동 724-4,(~727)",62,37.314638,126.832625
이삭길,"경기도 안산시 단원구 고잔동 729,(~749)",83,37.314507,126.837007
진흥2길,"경기도 안산시 단원구 고잔동 769,(~775)",162,37.311126,126.832455
보성프라자앞노상,경기도 안산시 단원구 원곡동 903,24,37.327906,126.800823
솔새길,"경기도 안산시 단원구 초지동 727,(~734)",34,37.310227,126.816845
청솔2길,"경기도 안산시 단원구 초지동 742,(~744)",79,37.303308,126.809882
월드아파트앞노상,경기도 안산시 상록구 본오동 881-8,49,37.300925,126.859647
음태기1길,"경기도 안산시 상록구 사동 1526,(~1531)",68,37.305335,126.845666
방어동(916-6),울산광역시 동구 방어동 916-6,12,35.488645,129.418263
명덕1주차장,울산광역시 동구 서부동 100-2,369,35.5218125,129.4283359
일산동(956-8),울산광역시 동구 일산동 956-8,30,35.4945964,129.4260304
산록마을 공영주차장,울산광역시 동구 전하동 산 145-8,70,35.5134885,129.4190795
대왕암공원 타워주차장,울산광역시 동구 일산동 901,600,35.49056234,129.434011
일산복개천공영주차장,울산광역시 동구 일산동 455-4,83,35.50450309,129.427708
상방복개천 노상,울산광역시 북구 연암동 417-4,78,35.58858745,129.3673338
연암노상,울산광역시 북구 화봉동 449-6,14,35.58794779,129.3673928
화봉 노상,울산광역시 북구 연암동 363-6,15,35.54713092,129.3844064
양정복개천 노상,울산광역시 북구 양정동 776-33,70,35.54734973,129.3849726
염포신전 노상,울산광역시 북구 염포동 195-1,23,35.53565007,129.3905161
완도군 공용주차장,전라남도 완도군 완도읍 군내리 308-19(가리포낚시),52,34.31512465,126.7580809
완도군 공용주차장,전라남도 완도군 완도읍 군내리 308-19(통발협회),27,34.31464587,126.7566699
완도군 공용주차장,전라남도 완도군 완도읍 군내리 308-19(럭키모텔),25,34.31563502,126.753625
완도군 공용주차장,전라남도 완도군 완도읍 군내리 782-104,10,34.31402025,126.7557678
완도군 공용주차장,전라남도 완도군 완도읍 군내리 411-15,14,34.31095336,126.7584709
완도군 공용주차장,전라남도 완도군 완도읍 군내리 770(군의회앞~정확당),56,34.3124105,126.755012
완도군 공용주차장,전라남도 완도군 완도읍 군내리 479-4(군청앞~중학교앞),92,34.31097163,126.7549596
완도군 공용주차장,전라남도 완도군 완도읍 군내리 319-3(천주교~완도초등학교),25,34.31320517,126.7593423
완도군 공용주차장,전라남도 완도군 완도읍 군내리 362-1(청빛마을앞 마을주차장),16,34.3122569,126.7586356
"삼성동 검배2길, 4길, 5길","대전광역시 동구 동서대로104번길, 1520번길(삼성동 309,310,319,320번지선)",22,36.3393304,127.4191173
청학동로,부산광역시 영도구 청학동 120-8,22,35.09243615,129.0634763
청학스카이웨이,부산광역시 영도구 동삼동 328-22,45,35.0902062,129.0593647
영도중학교옆,부산광역시 영도구 동삼동 328-22,20,35.077534,129.0692786
영도해녀문화전시관,부산광역시 영도구 동삼동 639-7,28,35.06700302,129.0660428
신선스카이웨이,부산광역시 영도구 신선동2가 141-84,49,35.086553,129.0483665
황금로 공영주차장,부산광역시 연제구 연산동 1811-555,54,35.17046555,129.0951485
연일 공동주차장,부산광역시 연제구 연산동 768-5,23,35.18446948,129.084383
과정 공영주차장,부산광역시 연제구 연산동 1062-1,53,35.18707007,129.098859
연산3동 금련 공영주차장,부산광역시 연제구 연산동 1811-664,131,35.17162666,129.0947708
연미노외공영주차장,부산광역시 연제구 연산동 2122-12,24,35.17374136,129.0950481
정자역환승,경기도 성남시 분당구 성남대로331번길 6,208,37.36575281,127.1073292
주택가 주차장,경기도 안산시 상록구 사동 1379-7,16,37.286434,126.845155
사동 주택가주차장,경기도 안산시 상록구 사동 1403-15,8,37.282632,126.853756
사동 120호,경기도 안산시 상록구 사동 1460-8,26,37.295061,126.842326
사동 47호,경기도 안산시 상록구 사동 1466-16,112,37.298443,126.849554
사동 121호,경기도 안산시 상록구 사동 1466-19,32,37.294415,126.844887
사동 117호,경기도 안산시 상록구 사동 1466-28,42,37.295031,126.855259
사동 127호,경기도 안산시 상록구 사동 1502,52,37.27871987,126.8521882
사동 126호,경기도 안산시 상록구 사동 1502-2,206,37.278691,126.846362
사동 34호,경기도 안산시 상록구 사동 526-2,94,37.301246,126.850463
사동 124호 노외주차장,경기도 안산시 상록구 사동 854-2,104,37.285429,126.848141
성포안산농협뒤,경기도 안산시 상록구 성포동 593,51,37.327609,126.843955
성포선경아파트앞,경기도 안산시 상록구 성포동 593-13,32,37.327108,126.843894
성포우체국앞,경기도 안산시 상록구 성포동 593-2,23,37.327143,126.844384
성포예술광장북측,경기도 안산시 상록구 성포동 593-37,26,37.328433,126.846039
성포예술광장남측,경기도 안산시 상록구 성포동 593-39,26,37.327343,126.845986
수암봉,경기도 안산시 상록구 수암동 280-2,139,37.364635,126.882997
윗버대 노외주차장(75호),경기도 안산시 상록구 양상동 47-16,12,37.354716,126.846453
주택가 주차장,경기도 안산시 상록구 월피동 441-3,9,37.32968126,126.8512625
다농마트뒤,경기도 안산시 상록구 월피동 445-2,40,37.334111,126.849011
공영유료주차장,경상북도 상주시 남성동85-36,95,36.41362914,128.159845
중앙시장공영주차장,경상북도 상주시 남성동110-1,137,36.41253643,128.161015
성동쌈지공영주차장,경상북도 상주시 성동동 67-1,60,36.415257,128.168884
남성동쌈지공영주차장,경상북도 상주시 남성동14-7,20,36.414493,128.158579
낙양동쌈지공영주차장,"경상북도 상주시 낙양동 123-23, 124-5",71,36.2437,128.0912
신봉동공영주차장,경상북도 상주시 신봉동 110-5.111-1,64,36.4045,128.1617
신봉제1공영주차장,경상북도 상주시 신봉동 546-6,19,36.9757,128.1495
신봉제2공영주차장,경상북도 상주시 신봉동 598-1,25,36.3943,128.1513
복룡동공영주차장,경상북도 상주시 복룡동 478-3,27,36.41979712,128.1638436
인봉동공영주차장,경상북도 상주시 인봉동 57-3,22,36.41691558,128.1628953
중부주차장,경상북도 상주시 서성동59-1,54,36.41850497,128.1595786
왕산주차장,경상북도 상주시 서성동153-1,13,36.41667003,128.161092
고려주차장,경상북도 상주시 남성동13-23,13,36.415283,128.1583931
동영빌딩주차장,경상북도 상주시 서성동56-6,149,36.418945,128.159487
로타리주차장,경상북도 상주시 남성동11-4,14,36.415037,128.159565
황금유료주차장,경상북도 상주시 서문동124-4,20,36.415966,128.158578
굿유료주차장,경상북도 상주시 서문동165-4,15,36.417855,128.154734
무지개주차장,경상북도 상주시 남성동120-6,33,36.41277784,128.158766
상주메디칼주차장,경상북도 상주시 남성동 119-11,12,36.41250018,128.159197
우진빌딩앞노상,경기도 안산시 단원구 고잔동 570-1,24,37.322438,126.840726
다리간길,"경기도 안산시 단원구 고잔동 682, (683)",62,37.314813,126.822265
진흥6길,"경기도 안산시 단원구 고잔동 703,(~706)",99,37.314927,126.827922
오리환승,경기도 성남시 분당구 구미동196,75,37.3397238,127.1094315
금곡동,경기도 성남시 분당구 금곡동169,82,37.3508143,127.1068174
수내동,경기도 성남시 분당구 발이봉북로 7,129,37.3667955,127.1279624
수내역,경기도 성남시 분당구 수내로 74,509,37.37927879,127.1188561
판교역환승,경기도 성남시 분당구 백현동532,273,37.3954983,127.1103645
삼평동 임시,경기도 성남시 분당구 삼평동 641,803,37.3969792,127.1083931
서현 환승,경기도 성남시 분당구 황새울로 360번길 43,486,37.38426124,127.123721
판교공,경기도 성남시 분당구 판교역로146번길 8,734,37.39362374,127.1107478
율동공원 A주차장,경기도 성남시 분당구 문정로 145,140,37.38335566,127.1500042
율동공원 B주차장,경기도 성남시 분당구 서현로 459,541,37.37345052,127.148002
운중동974공영주차장,경기도 성남시 분당구 운중동 974,70,37.392322,127.0780126
판교제2공영주차장,경기도 성남시 분당구 판교동 574,104,37.3903897,127.0985219
영덕군청주차장,경상북도 영덕군 영덕읍 남석리 310-3,257,36.415009,129.3653996
강구공영주차장,경상북도 영덕군 강구면 강구리 363-22,189,36.36349296,129.3831893
금오시장앞,경상북도 구미시 원평동 1085,66,36.12611069,128.3406994
신평시장내,경상북도 구미시 신평동 150-52,42,36.12248571,128.3622603
신평시장일방도로,경상북도 구미시 신평동 150-31,50,36.12334473,128.3620259
공단현대상가앞,경상북도 구미시 공단동 254,31,36.10203835,128.3837326
단계교~노상교,경상북도 구미시 선산읍 완전리 432,74,36.24273458,128.2980356
효성아파트앞,경상북도 구미시 송정동 9-10,135,36.12092679,128.3439096
구미경찰서앞,경상북도 구미시 송정동 59,13,36.11982189,128.3462854
금락공영주차장,경상북도 경산시 하양읍 금락리 133-20,43,35.91333669,128.8193801
하양읍 동서리 하양로 노상주차장,경상북도 경산시 하양읍 동서리 648-2,26,35.91726533,128.8247929
백양로 노상주차장,경상북도 경산시 계양동 606-2,12,35.81466517,128.7508863
옥산동 삼성현로31길 공영주차장,경상북도 경산시 옥산동 888,9,35.8226549,128.7214422
진량 휴면시아 뒤 노상주차장,경상북도 경산시 진량읍 부기리 716,80,35.9068248,128.8226508
계양공영주차장,경상북도 경산시 계양동 732,187,35.8336527,128.7418745
압량 가일리 공영주차장,경상북도 경산시 압량읍 가일리 208-4,123,35.83907929,128.7817953
하양 동서리 공영주차장,경상북도 경산시 하양읍 동서리 593-3,121,35.91661583,128.8179805
경북체고(신교동) 앞 공영주차장,경상북도 경산시 신교동 108-12,38,35.811785,128.7392477
중산동 더삽1차아파트 앞,경상북도 경산시 중산동 628-9,52,35.8269078,128.723163
백천동로(동화리버빌아파트),경상북도 경산시 백천동 600,27,35.80129953,128.735874
진량 신상리 공영주차장,경상북도 경산시 진량읍 신상리 367-1,45,35.8730448,128.8228039
백천동 삼도뷰엔빌w아파트,경상북도 경산시 백천동 620,12,35.8019777,128.7437927
옥곡동 신동아,경상북도 경산시 옥곡동 88-1,24,35.81459761,128.7283827
자인 교촌리,"경상북도 자인면 교촌리 192-4, 192-8, 192-22, 192-9, 385",52,35.8235904,128.8266978
진량 양기리,경상북도 경산시 진량읍 양기리 401-3,104,35.893951,128.835892
중방동 소규모,경상북도 경산시 중방동 818-177,10,35.819161,128.733475
자인 종합주차장,경상북도 경산시 자인면 서부리 263-1,126,35.8164605,128.8219714
삼성리 시군창의 주차장,경상북도 경산시 남천면 삼성리 510,21,35.762841,128.724576
순천향병원,경상북도 구미시 공단동 254,20,36.10341593,128.3821703
송원육교밑,경상북도 구미시 원평동 1089,25,36.12452037,128.3434821
공단BS호텔앞,경상북도 구미시 공단동 205-3,60,36.10986857,128.3771429
금락초등학교 앞,경상북도 경산시 하양읍 금락리 394-4,41,35.91144887,128.8247823
진량공단내 주차장,경상북도 경산시 진량읍 신상리 1196-3,195,35.87085488,128.828164
진량 윤성1차타운 뒷편,경상북도 경산시 진량읍 선화리 1099-11,61,35.86496096,128.7947512
자인시장 주차장,경상북도 경산시 자인면 서부리 254-1,110,35.81708467,128.8231198
자인공단내 주차장,경상북도 경산시 자인면 북사리 1094,214,35.82579055,128.8228099
남천면사무소 앞 주차장,경상북도 경산시 남천면 삼성리 92,30,35.76632018,128.7270981
신대부적지구내 주차장,경상북도 경산시 압량면 신대리 471,129,35.84141835,128.7642153
남천둔치주차장(경산교~서옥교),경상북도 경산시 서상동 143-1,26,35.81874618,128.7339954
남천둔치주차장 서편(경산교~서옥교),경상북도 경산시 사정동 301-1,56,35.81906862,128.7318825
남천둔치주차장(공원교~경산교 ),경상북도 경산시 중방동 818-1,30,35.82787961,128.7320253
남천둔치주차장 서편(공원교~경산교 ),경상북도 경산시 사정동 301-1,41,35.822724,128.729603
옥곡공영주차장(신동아파밀리에앞),경상북도 경산시 옥곡동 88-1,31,35.81482242,128.7283827
경산역사서편,경상북도 경산시 사정동 86-1,31,35.81714774,128.7278534
경산역사서편,경상북도 경산시 사정동 84-3,24,35.81877241,128.7274195
남천둔치주차장 서편(영대교~공원교 ),경상북도 경산시 중방동 818-59,16,35.83169617,128.7320684
남천둔치주차장 서편(신혼하이츠앞~영대교 ),경상북도 경산시 정평동 255-39,45,35.83604254,128.7296132
옥산2지구 지하공영주차장,경상북도 경산시 옥산동 725-1,300,35.82939635,128.7263175
옥산2지구 노외공영주차장,경상북도 경산시 옥산동 733-1,79,35.82751958,128.727832
남산문화마을 주차장,경상북도 경산시 남산면 산양리 365,13,35.79251129,128.836963
임당환승주차장,경상북도 경산시 임당동 875,317,35.8352497,128.7416126
옥곡 공영주차장,경상북도 경산시 옥곡동 768,148,35.8090008,128.7317309
대천주차장,부산광역시 해운대구 좌2동1482-4,20,35.1677579,129.1780157
진영주차장,"부산광역시 해운대구 좌2동1480-2,3",32,35.1685474,129.1774782
문화의거리 임시공영주차장,경기도 오산시 오산동 881-1,78,37.14580122,127.0680679
오산역제2환승주차장,경기도 오산시 오산동 679-1,104,37.14380138,127.0671651
궐동 공영주차장,경기도 오산시 궐동 692,229,37.15714959,127.0560661
누읍동 공영주차장,경기도 오산시 누읍동 630-1,30,37.139409,127.0532111
청학동 제2임시공영주차장,경기도 오산시 청학동 188-5,51,37.150989,127.0598016
세마대지 입구 공영주차장,경기도 오산시 지곶동 89-1,84,37.180005,127.0283722
독산성 서쪽 공영주차장,경기도 오산시 양산동 산19-89,67,37.18148721,127.0155361
신장동임시공영주차장,경기도 오산시 내삼미동 490-1,59,37.1775877,127.0561268
궐동 임시공영주차장,경기도 오산시 궐동 701-7,14,37.15592198,127.0558766
궐동 제10임시공영주차장,경기도 오산시 궐동 677-14,9,37.1588284,127.0547586
궐리사학당 공영주차장,경기도 오산시 궐동 635-2,16,37.1597148,127.0616154
내삼미동 제2임시공영주차장,경기도 오산시 내삼미동 881-2,16,37.17505413,127.0549026
성산제2임시공영주차장,경기도 오산시 오산동 519,36,37.1498783,127.0643399
원동복개도로 노상주차장,경기도 오산시 원동 759-1,61,37.14746771,127.071914
오산역환승센터 철도변노상주차장,경기도 오산시 오산동 603-22,46,37.1481874,127.0672934
어울림(복개천)공영주차장,경기도 오산시 원동 772-15,163,37.14427156,127.072068
수청동제2 임시공영주차장,경기도 오산시 수청동561-3,10,37.17224956,127.0596326
세마역 환승주차장,경기도 오산시 세교동 592-1,70,37.1873288,127.0439563
궐동 제3임시공영주차장,경기도 오산시 궐동 613-2,44,37.1615052,127.0534574
상록수역앞,경기도 안산시 상록구 본오동 874-7,89,37.302017,126.866523
상록수역 환승,경기도 안산시 상록구 본오동 875-5,181,37.302769,126.864273
상록수역뒤환승,경기도 안산시 상록구 본오동 876-4,77,37.303377,126.865154
본오동 116호,경기도 안산시 상록구 본오동 876-8,91,37.304233,126.860229
본오지구대옆,경기도 안산시 상록구 본오동 877-4,42,37.302417,126.861173
본오주공아파트앞,경기도 안산시 상록구 본오동 878-2,23,37.301205,126.860402
본오3동주민센터앞,경기도 안산시 상록구 본오동 878-7,102,37.301324,126.862925
주택가 주차장,경기도 안산시 상록구 본오동 927-18,7,37.288919,126.860827
주택가 주차장,경기도 안산시 상록구 본오동 987-5,8,37.283639,126.860974
부곡동 100호,경기도 안산시 상록구 부곡동 537,50,37.332897,126.864785
주택가 주차장,경기도 안산시 상록구 부곡동 551-6,6,37.330625,126.867961
주택가 주차장,경기도 안산시 상록구 사동 1194-16,8,37.301227,126.8491168
주택가 주차장,경기도 안산시 상록구 사동 1297-9,12,37.296923,126.849622
주택가 주차장,경기도 안산시 상록구 사동 1310-14,7,37.295405,126.850908
시민행복주차장,경상북도 구미시 원평동 1-12,19,36.11572157,128.4247777
시민행복주차장,경상북도 구미시 원평동 937-45,10,36.11572157,128.4247777
시민행복주차장,경상북도 구미시 인의동 654-5,10,36.11572157,128.4247777
택지개발,경상북도 구미시 장천면 상장리 942-50,10,36.11572157,128.4247777
이계천(삼성전자 옆),경상북도 구미시 진평동 645,103,36.11572157,128.4247777
시민행복주차장,경상북도 구미시 형곡동 113-6,13,36.11572157,128.4247777
시민행복주차장,경상북도 구미시 형곡동 302-7,12,36.11572157,128.4247777
노상주차장,충청북도 증평군 증평읍 중동리 10-1,23,36.78454075,127.581549
운암공영주차장,경기도 오산시 원동 812-5,593,37.1472682,127.0756038
오산 오색시장 제2공영주차장,경기도 오산시 오산동 316-47,199,37.1534422,127.0709423
오산역 환승주차장,경기도 오산시 오산동 621-3,220,37.14716292,127.0661162
오색시장 주차장,경기도 오산시 오산동 854-10,102,37.15150223,127.0696079
궐동 제1공영주차장,경기도 오산시 궐동 21-3,110,37.16036858,127.0678352
궐동 제2공영주차장(차량등록사업소),경기도 오산시 궐동 94,122,37.1575168,127.065091
원동 공영주차장,경기도 오산시 원동 806-2,28,37.134663,127.0724056
은계동 공영주차장,경기도 오산시 은계동 53,120,37.16291914,127.0717792
궐리사앞 공영주차장,경기도 오산시 궐동 637-7,42,37.158531,127.0622773
궐동 복개천 주차장,경기도 오산시 궐동 14-1,57,37.15993434,127.0664601
성산초교 뒤 공영주차장,경기도 오산시 오산동 494-4,30,37.152133,127.0669339
원동 대림 공영주차장,경기도 오산시 원동 404-9,72,37.138152,127.0717721
양산공영주차장(양산도서관 옆),경기도 오산시 양산동 670-4,80,37.193986,127.032747
청학동 임시공영주차장,경기도 오산시 청학동 58-18,57,37.1551577,127.0577068
밀머리길 임시공영주차장,경기도 오산시 원동 377-20,23,37.13849863,127.0747192
궐동 제2임시공영주차장,경기도 오산시 궐동 649-8,32,37.157958,127.062111
세마역 임시공영주차장,경기도 오산시 세교동 603-1,75,37.186269,127.0434646
(꿈두레도서관)임시공영주차장,경기도 오산시 세교동 617-3,70,37.181288,127.0444747
오산대역 환승주차장,경기도 오산시 수청동 600,99,37.169851,127.0606886
수청동 임시공영주차장,경기도 오산시 수청동 635-2,60,37.16740058,127.067656
내삼미동 임시공영주차장,경기도 오산시 내삼미동 889,103,37.176703,127.0568937
동서동공영주차장,경상남도 창원시 마산합포구 수성동 75-3,5,35.204129,128.573858
깡통골목공영주차장,"경상남도 창원시 마산합포구 신창동 3-12, 22",12,35.1887777,128.559959
예곡마을공영주차장,경상남도 창원시 마산합포구 예곡동 347-3,7,35.170529,128.545376
오동동2공영유료주차장,경상남도 창원시 마산합포구 오동동 60-27,54,35.2093668,128.5789949
오동동1공영유료주차장,경상남도 창원시 마산합포구 오동동 88-3,67,35.209057,128.578199
우산동공영주차장,경상남도 창원시 마산합포구 우산동 300,65,35.15831526,128.552754
청량산공영주차장,경상남도 창원시 마산합포구 월영동 134-85,32,35.187634,128.552331
월영동공영주차장,"경상남도 창원시 마산합포구 월영동 265,265-2,271,694-1",29,35.1854738,128.5517188
월영마을공영주차장,경상남도 창원시 마산합포구 월영동 711,49,35.17143733,128.5609154
신동리 191주차장(나대지),충청북도 증평군 증평읍 신동리 191,13,36.78154609,127.579932
장동리 721주차장(나대지),충청북도 증평군 증평읍 장동리 721,31,36.78393706,127.5870674
장동리 166주차장(나대지),충청북도 증평군 증평읍 장동리 166,10,36.78676175,127.5851083
장뜰시장주차장,충청북도 증평군 증평읍 신동리 53,38,36.78238487,127.581654
장뜰시장주차장,충청북도 증평군 증평읍 대동리 15,17,36.782967,127.583657
장뜰시장주차장,충청북도 증평군 증평읍 대동리 17,24,36.782722,127.583668
장뜰시장주차장,충청북도 증평군 증평읍 중동리 88,31,36.783339,127.583114
장뜰시장주차장,충청북도 증평군 증평읍 중동리 104,14,36.7835024,127.582241
새한주차장,충청북도 증평군 증평읍 창동리 18,80,36.786972,127.583102
삼흥주차장,충청북도 증평군 증평읍 교동리 91,40,36.784759,127.583551
노상주차장,충청북도 증평군 증평읍 교동리 29-1,9,36.78569514,127.5828461
상마전마을공영주차장,경상남도 창원시 마산합포구 구산면 마전리 340-1,13,35.130015,128.5320849
반동마을공영주차장,경상남도 창원시 마산합포구 구산면 반동리 322-1,23,35.084055,128.584048
해양드라마세트장공영주차장,경상남도 창원시 마산합포구 구산면 석곡리 765-1,29,35.11092314,128.543761
원전마을공영주차장,경상남도 창원시 마산합포구 구산면 심리 22-6,165,35.06837673,128.6333748
심리마을공영주차장,경상남도 창원시 마산합포구 구산면 심리 564-12,24,35.070218,128.608006
신촌마을공영주차장,경상남도 창원시 마산합포구 구산면 옥계리 826-1,30,35.09480297,128.5870556
유산마을공영주차장,경상남도 창원시 마산합포구 구산면 유산리 115-3,13,35.1316232,128.5631586
부림동공영유료주차장,경상남도 창원시 마산합포구 부림동 106-95,30,35.204123,128.570708
어린교공영유료주차장,경상남도 창원시 마산합포구 산호동 2,135,35.220361,128.587407
합포동공영유료주차장,경상남도 창원시 마산합포구 산호동 338-22,59,35.20898572,128.583118
진량공단내 공단9길,경상북도 경산시 진량읍 신상리 1214,154,35.87434118,128.8290457
진량공단내 대원리길,경상북도 경산시 진량읍 대원리 512,140,35.86208627,128.8245442
진량 보국웰리치 주변,경상북도 경산시 진량읍 신상리 186-2,54,35.87355229,128.8181067
진량공단내(가스공사앞도로),경상북도 경산시 진량읍 신상리 1211,128,35.87065017,128.8262197
진량공단내(주.나이테~주.에스피엘),경상북도 경산시 진량읍 신상리 1211,121,35.87210697,128.8273647
동신아파트 앞,경상북도 경산시 하양읍 도리리 181-1,21,35.91632065,128.814889
경산역 서편,경상북도 경산시 사정동 84-19,35,35.81714902,128.7278518
문화회관진입도로,경상북도 경산시 하양읍 금락리 130-28,87,35.91088234,128.8126918
백천네거리~실내테니스장,경상북도 경산시 백천동 617,10,35.80331804,128.7385472
삼북주공~상방삼거리,경상북도 경산시 삼북동 20-2,20,35.81783461,128.7409503
서동초정문앞임시공영주차장,충청남도 서산시 동문동 94-2,62,36.78161722,126.4676178
놀부부대찌개인근임시공영주차장,충청남도 서산시 읍내동 807-1,5,36.77696589,126.4451749
대산터미널인근임시공영주차장,충청남도 서산시 대산읍 대산리 1578,25,36.93950049,126.4287412
내포마을(아래)공영주차장,경상남도 창원시 마산합포구 구산면 내포리 206-1,13,35.0963065,128.5815984
내포마을(윗)공영주차장,경상남도 창원시 마산합포구 구산면 내포리 603,31,35.09970171,128.576646
2-4 주차장사무실맞은편,경기도 이천시 창전동 156-16,22,37.280614,127.442017
3-1 세람저축은행앞,경기도 이천시 중리동 194-7,17,37.27992848,127.443274
3-2 세람저축은행맞은편,경기도 이천시 창전동 159-17,17,37.280446,127.443658
3-3 CGV앞,경기도 이천시 중리동 201-1,24,37.27964401,127.4441569
4-2 산림조합앞,경기도 이천시 창전동 168-21,18,37.279358,127.445533
4-3 새마을금고앞,경기도 이천시 창전동 168-23,18,37.279443,127.445424
4-4 라온팰리스맞은편,경기도 이천시 창전동 169-7,12,37.278647,127.4465055
5-1 관고2통보호수앞,경기도 이천시 관고동 15-18,25,37.28080468,127.4383183
삼주봉황진입로,경상북도 경산시 진량읍 봉회리 60-1,47,35.88437401,128.8199309
외환은행사거리~ 하양방면,경상북도 경산시 진량읍 신상리 산14-8,17,35.87618728,128.8192874
진량공단내 공단2길,경상북도 경산시 진량읍 신상리 1213,221,35.86369303,128.8212733
진량공단내 공단5길,경상북도 경산시 진량읍 신상리 1212,183,35.86208727,128.8245437
택지개발,경상북도 구미시 선산읍 교리 1195,29,36.11572157,128.4247777
진량공단내 공단6길,경상북도 경산시 진량읍 신상리 1212,301,35.86785606,128.8225805
진량공단내 공단7길,경상북도 경산시 진량읍 신상리 1212,171,35.86385169,128.8276755
장군동공영유료주차장,경상남도 창원시 마산합포구 중앙동3가 3-8,43,35.1971422,128.5663649
서원곡공영주차장,"경상남도 창원시 마산합포구 교방동 231,232,235,498,499-86",37,35.21089116,128.5624869
저도비치로드공영주차장,"경상남도 창원시 마산합포구 구산면 구복리 326-4, 326-1",61,35.058712,128.561909
저도연륙교제2공영주차장,경상남도 창원시 마산합포구 구산면 구복리 산 168,23,35.06547941,128.5614788
저도연륙교제1공영주차장,경상남도 창원시 마산합포구 구산면 구복리 산186-1,28,35.06768621,128.5628331
회덕동 공영주차장,대전광역시 대덕구 읍내동 247-3,66,36.3767305,127.4217681
산디마을 공영주차장,대전광역시 대덕구 장동 670,7,36.3952939,127.4424192
석봉과선교 철도주변 공영주차장,대전광역시 대덕구 석봉동 387-3,15,36.446778,127.4285789
새뜸마을안길 공영주차장,대전광역시 대덕구 장동 783,7,36.4029451,127.4359917
장동욕골지구 공영주차장,대전광역시 대덕구 장동 367-4,91,36.4140307,127.4379819
미암리 1053 주차장,충청북도 증평군 증평읍 미암리 1053,98,36.806995,127.588549
인삼판매장 주차장,충청북도 증평군 증평읍 송산리 96-1,62,36.79588291,127.581758
신동리 242 주차장(나대지),충청북도 증평군 증평읍 신동리 242,10,36.781335,127.580748
신동리 13-2 주차장(나대지),충청북도 증평군 증평읍 신동리 13-2,10,36.782884,127.5805
신동리 9 주차장(나대지),충청북도 증평군 증평읍 신동리 9,15,36.783076,127.5805319
지구대옆주차장(나대지),충청북도 증평군 증평읍 교동리 65,9,36.785914,127.5838293
증평리 54주차장(나대지),충청북도 증평군 증평읍 증평리 54,8,36.78113722,127.581702
신동리 166주차장(나대지),충청북도 증평군 증평읍 신동리 166,13,36.782094,127.580007
장동리 558주차장(나대지),충청북도 증평군 증평읍 장동리 558,14,36.7848448,127.587195
신동리 168주차장(나대지),충청북도 증평군 증평읍 신동리 168,10,36.781997,127.580041
신동리 410주차장(나대지),충청북도 증평군 증평읍 신동리 410,4,36.780016,127.582337
와동주민센타주차장(31호),경기도 안산시 단원구 와동 94,88,37.341571,126.826405
안산역 환승,경기도 안산시 단원구 원곡동 380,185,37.327976,126.787291
원곡초교사거리,경기도 안산시 단원구 원곡동 780-2,40,37.331023,126.796123
원곡동 노외주차장 45호,경기도 안산시 단원구 원곡동 990-1,191,37.3396686,126.7923477
외국인주민센터앞,경기도 안산시 단원구 원곡동 991-1,88,37.332436,126.790303
신천길앞,경기도 안산시 단원구 원곡동 991-2,180,37.330278,126.788863
공단삼거리 제3주차장,경기도 안산시 단원구 원시동 726-2,486,37.312383,126.790219
공단삼거리 제2주차장,경기도 안산시 단원구 원시동 772-6,441,37.313223,126.791091
공단삼거리 제1주차장,경기도 안산시 단원구 원시동 778-6,410,37.311515,126.791546
안산스마트허브 원시동 노외주차장,경기도 안산시 단원구 원시동 782-16(~ 초지동 647-2),158,32.5739268,124.8702778
초지동 화물차전용주차장,경기도 안산시 단원구 초지동 670-12,90,37.298509,126.804031
용담뿌리 노외주차장(70호),경기도 안산시 상록구 건건동 940-5,9,37.301404,126.899852
본오3동56호 노외주차장,경기도 안산시 상록구 본오동 1079-1,40,37.300246,126.876885
본오동 147호 노외주차장,경기도 안산시 상록구 본오동 1112-33,65,37.301843,126.872135
주택가 주차장,경기도 안산시 상록구 본오동 1120-13,11,37.300833,126.870421
본오동 109호,경기도 안산시 상록구 본오동 1147-2,77,37.302031,126.874752
주택가 노외주차장,경기도 안산시 상록구 본오동 713-15,6,37.285748,126.867712
본오도서관뒤,경기도 안산시 상록구 본오동 781-6,78,37.294115,126.871882
주택가 주차장,경기도 안산시 상록구 본오동 835-10,7,37.292194,126.870071
월드프라자앞,경기도 안산시 상록구 본오동 873-6,105,37.301207,126.866474
와동 노외주자장(137호),경기도 안산시 단원구 와동 515-4,82,37.334117,126.82594
와동 54호 주차장,경기도 안산시 단원구 와동 607-1,55,37.331348,126.822763
주택가 소규모주차장,경기도 안산시 단원구 와동 681-16,10,37.331809,126.827943
와동 주택가주차장,경기도 안산시 단원구 와동 702-2,12,37.336024,126.831452
범4-1(주거지),부산광역시 동구 범일동 1407-3,4,35.13804567,129.0499092
와동 주택가주차장,경기도 안산시 단원구 와동 708-4,12,37.336129,126.8295431
와동 주택가주차장,경기도 안산시 단원구 와동 711-3,12,37.337729,126.829709
와동 주택가주차장,경기도 안산시 단원구 와동 711-6,12,37.337249,126.829924
와동 주택가주차장,경기도 안산시 단원구 와동 768-9,10,37.342241,126.823309
와동노외주차장,경기도 안산시 단원구 와동 780-1,24,37.346123,126.822243
와동 주택가 주차장,경기도 안산시 단원구 와동 784-9,11,37.347132,126.822956
와동 주택가주차장,경기도 안산시 단원구 와동 797-17,12,37.345655,126.8199829
와동주택가주차장,경기도 안산시 단원구 와동 802-16,10,37.344434,126.820496
와동 주택가주차장,경기도 안산시 단원구 와동 847-11,10,37.331113,126.820514
주례오거리공영주차장,부산광역시 사상구 주례동 743-2,95,35.15084198,129.000557
감전중천주변,부산광역시 사상구 감전동 150-1,191,35.15409387,128.9770409
엄궁초등학교지하주차장,부산광역시 사상구 엄궁동 47,93,35.12918509,128.9743982
학장천공영주차장,부산광역시 사상구 주례동 1287,90,35.14567213,128.9946989
덕포백양공원공영주차장,부산광역시 사상구 덕포동 776-1,50,35.17490755,128.9895784
양지2공원주변,부산광역시 사상구 주례동 314,74,35.15408297,129.0044592
고동바위공영주차장,부산광역시 사상구 모라동 1359,41,35.18821145,128.990298
찬우물2주차장,경기도 과천시 갈현동 356-6,11,37.4166178,126.9820658
범일2동 제2노상공영주차장,부산광역시 동구 범일동 946-1,9,35.13809798,129.0650803
범1-1(주거지),부산광역시 동구 범일동 1347-19,6,35.13871348,129.0521946
범1-2(주거지),부산광역시 동구 범일동 1338-48,7,35.1392086,129.0525449
범1-3(주거지),부산광역시 동구 범일동 1334-3,9,35.13919365,129.0534266
범1-4(주거지),부산광역시 동구 범일동 1385,22,35.13226412,129.0581801
범1-6(주거지),부산광역시 동구 범일동 1320-98,12,35.1388698,129.055731
범2-1(주거지),부산광역시 동구 범일동 252-1853,20,35.13474282,129.0574088
범4-2(주거지),부산광역시 동구 범일동 1457-39,16,35.13804567,129.0499092
범4-3(주거지),부산광역시 동구 범일동 1412-127,13,35.13806421,129.0524328
범4-4(주거지),부산광역시 동구 범일동 1462-33,4,35.13806421,129.0524328
범4-5(주거지),부산광역시 동구 범일동 1430-11,8,35.13806421,129.0524328
범4-6(주거지),부산광역시 동구 범일동 1412-49,9,35.13806421,129.0524328
범4-7(주거지),부산광역시 동구 범일동 1403-40,9,35.13806421,129.0524328
범5-2(주거지),부산광역시 동구 범일동 252-997,30,35.13307981,129.0572704
범5-4(주거지),부산광역시 동구 범일동 252-997,8,35.13307981,129.0572704
범5-6(주거지),부산광역시 동구 범일동 252-1871,16,35.13307981,129.0572704
범6-1(주거지),부산광역시 동구 범일동 1511-4,7,35.13806421,129.0524328
범6-2(주거지),부산광역시 동구 범일동 1524-16,11,35.13806421,129.0524328
범6-3(주거지),부산광역시 동구 범일동 산 81-28,8,35.13806421,129.0524328
공단구조화,경상북도 구미시 공단동 295-19,32,36.11572157,128.4247777
공단구조화,경상북도 구미시 공단동 296-27,26,36.11572157,128.4247777
공단구조화,경상북도 구미시 공단동 296-34,26,36.11572157,128.4247777
시민행복주차장,경상북도 구미시 공단동 297-7,149,36.11572157,128.4247777
시민행복주차장,경상북도 구미시 구평동 1084,93,36.11572157,128.4247777
시민행복주차장,경상북도 구미시 구평동 448-6,12,36.11572157,128.4247777
시민행복주차장,경상북도 구미시 도량동 85,36,36.11572157,128.4247777
시민행복주차장,경상북도 구미시 도량동 319-4,7,36.11572157,128.4247777
시민행복주차장,경상북도 구미시 봉곡동 131-2,17,36.11572157,128.4247777
시민행복주차장,경상북도 구미시 봉곡동 232-4,12,36.11572157,128.4247777
시민행복주차장,경상북도 구미시 봉곡동 57-8,21,36.11572157,128.4247777
택지개발,경상북도 구미시 사곡동 603-164,23,36.11572157,128.4247777
우항공원1,경상북도 구미시 산동읍 신당리 2017,117,36.11572157,128.4247777
우항공원2,경상북도 구미시 산동읍 신당리 2017,56,36.11572157,128.4247777
택지개발,경상북도 구미시 선산읍 동부리 814,27,36.11572157,128.4247777
택지개발,경상북도 구미시 선산읍 동부리 864,20,36.11572157,128.4247777
단계천 2차복개,경상북도 구미시 선산읍 완전리 432,140,36.11572157,128.4247777
시민행복주차장,경상북도 구미시 선산읍 완전리 59-2,65,36.11572157,128.4247777
택지개발,경상북도 구미시 선산읍 이문리 598-1,20,36.11572157,128.4247777
택지개발,경상북도 구미시 선산읍 화조리 987,25,36.11572157,128.4247777
원평동소공원(분수대),경상북도 구미시 원평동 1078,42,36.11572157,128.4247777
교육청길주차장,서울특별시 강북구 송중동 137-19,82,37.61873574,127.0297173
어울림소공원주차장,"서울특별시 강북구 미아동 1,2,4,5번지",45,37.6184131,127.0364771
수유마을시장주차장,서울특별시 강북구 수유동 55-54,116,37.63074936,127.0221772
번동햇살주차장,서울특별시 강북구 번2동 148-380,187,37.62510041,127.0334082
수유쌈지주차장,서울특별시 강북구 수유동 612-6,19,37.632063,127.023556
미아동주차장,서울특별시 강북구 미아동 222-100,155,37.628521,127.022331
삼양마을공원주차장,서울특별시 강북구 미아동 748-2,95,37.62289902,127.018223
청암주차장,서울특별시 강북구 미아동 791-1694,47,37.62471383,127.015402
수유일공원주차장,서울특별시 강북구 수유동 605-407,91,37.630619,127.017431
삼양시장길주차장,서울특별시 강북구 미아동 791-1429,43,37.625824,127.0156916
가오리주차장,서울특별시 강북구 수유동 349-3,120,37.64160556,127.014951
냉천길주차장,서울특별시 강북구 미아동 756-1,103,37.62400684,127.019536
은혜(무인)주차장,서울특별시 강북구 미아동 791-1049,20,37.627919,127.016971
오패산주차장,서울특별시 강북구 미아동 133-100,76,37.622054,127.031151
교동유료주차장,충청북도 증평군 증평읍 교동리 108,29,36.78461662,127.584478
초중주차장,충청북도 증평군 증평읍 초중리 582-1,27,36.7801908,127.573402
초중주차장,충청북도 증평군 증평읍 초중리 562-4,27,36.780676,127.573537
주전해안길,울산광역시 동구 주전동 296-4,13,35.555611,129.458078
초중주차장,충청북도 증평군 증평읍 초중리 578-1,43,36.779511,127.571602
단군전 주차장,충청북도 증평군 증평읍 증평리 99,30,36.78134245,127.5832881
증평문화원 주차장,충청북도 증평군 증평읍 장동리 788,50,36.786202,127.589887
미암리 1070 주차장,충청북도 증평군 증평읍 미암리 1070,66,36.806995,127.588549
동서1길2주차장,경상북도 의성군 의성읍 상리리 742-29,62,36.349817,128.703516
문소1길주차장,경상북도 의성군 의성읍 중리리 825-2,11,36.351201,128.699228
후죽2길주차장,경상북도 의성군 의성읍 후죽리 500-3,30,36.354672,128.697713
후죽3길주차장,경상북도 의성군 의성읍 후죽리 499-5,20,36.354876,128.697254
향교길주차장,경상북도 의성군 의성읍 도서리 178-1,12,36.347922,128.697134
전통시장공영주차장,경상북도 의성군 의성읍 도동리 665-3,53,36.344728,128.700197
염매시장공영주차장,경상북도 의성군 의성읍 후죽리 690-1,17,36.350379,128.695451
마늘직거래장터주차장,경상북도 의성군 의성읍 도서리 124-5,98,36.344631,128.697419
북부주차장,경상북도 의성군 의성읍 후죽리 461-2,68,36.355519,128.6954595
청구2단지노상주차장,경상북도 의성군 의성읍 중리리 937,20,36.354764,128.702832
안계시장주차장,경상북도 의성군 안계면 용기리 477,95,36.38460947,128.439406
금성시장공영주차장,경상북도 의성군 금성면 산운리 643-9,50,36.253195,128.685651
후죽4길노상주차장,경상북도 의성군 의성읍 후죽리 490-5,29,36.355335,128.696187
중앙길주차장,경상북도 의성군 의성읍 도동리 918-1,12,36.348619,128.697528
의성후죽임시주차장,경상북도 의성군 의성읍 후죽리 484-1,24,36.355154,128.695299
의성후죽리공영주차장,경상북도 의성군 의성읍 후죽리 457-39,20,36.3569631,128.6960026
점곡소규모공영주차장,경상북도 의성군 점곡면 서변리 119,105,36.42473359,128.768414
의성후죽1길공영주차장,경상북도 의성군 의성읍 후죽리 484-1,19,36.35416109,128.6953497
의성북부길공영주차장,경상북도 의성군 의성읍 후죽리 372-1,49,36.3600076,128.6926942
오사리임시공영3주차장,충청남도 서산시 성연면 오사리 1777,19,36.82757855,126.446648
오사리임시공영4주차장,충청남도 서산시 성연면 오사리 1775,14,36.82708378,126.4464408
대산홈마트옆임시공영주차장-2,충청남도 서산시 대산읍 대산리 216-7,4,36.93959298,126.4317938
장계공영주차장,전라북도 장수군 장계면 장계리 346,57,35.732259,127.583787
다목적광장주차장,전라북도 장수군 장계리 484-15,35,35.728684,127.581035
장계천변주차장,전라북도 장수군 장계면 장계리 491-2,210,35.730032,127.581699
터미널주변 생태주차장,전라북도 장수군 장계리 290-4,48,35.7303035,127.5816931
노하숲주차장,전라북도 장수군 장수읍 노하리 399,43,35.653573,127.515683
대전천우안8길(북부교~현암교),대전광역시 동구 삼성동 312-6~330-13번지선,74,36.3394225,127.4251098
삼성동 건강보험관리공단 주변,대전광역시 동구 삼성동 398-3번지 주변,33,36.3431205,127.4145551
하수종말처리장옆,부산광역시 영도구 동삼동 201-59,66,35.08648588,129.0759224
75광장앞,부산광역시 영도구 동삼동 628-1,19,35.0716713,129.0573621
남항시장,부산광역시 영도구 남항동2가 267,66,35.08826833,129.0407422
신선하나,부산광역시 영도구 신선동1가 196-5,42,35.09054756,129.0477633
신선동,부산광역시 영도구 신선동2가 136-1,25,35.08705236,129.0467623
봉래시장,부산광역시 영도구 봉래동3가 22-2,23,35.0929268,129.0438271
유정아파트,부산광역시 영도구 봉래동5가 122-37,20,35.09266318,129.0552642
청학시장,부산광역시 영도구 청학동 307-19,26,35.0968306,129.0592136
청학하나,부산광역시 영도구 청학동 391-98,57,35.09680071,129.0592793
청학초등학교,부산광역시 영도구 청학동 412-3,105,35.09320301,129.0595046
청학1동,부산광역시 영도구 청학동 418-5,40,35.09140058,129.056113
해돋이마을,부산광역시 영도구 청학동 468-57,22,35.0904128,129.0568423
청학2동,부산광역시 영도구 청학동 99-229,53,35.08920619,129.0622152
사정동제1노외,대전광역시 중구 사정동 397,33,36.29711219,127.3840357
선부3동 146호 주차장,경기도 안산시 단원구 선부동 1133-15,107,37.345151,126.812205
선부동 주택가주차장,경기도 안산시 단원구 선부동 1141-21,10,37.343223,126.814242
선부동 144호 노외주차장,경기도 안산시 단원구 선부동 17-3,35,37.3386323,126.7965367
선부동 141호 노외주차장,경기도 안산시 단원구 선부동 664,61,37.344695,126.807856
선부2동 140호 주차장,경기도 안산시 단원구 선부동 677-6,77,37.346759,126.807625
선부동26호노외주차장,경기도 안산시 단원구 선부동 703-2,108,37.344105,126.803539
선부동  27호 주차장,경기도 안산시 단원구 선부동 705-2,31,37.343442,126.801875
선부2동 145호 주차장,경기도 안산시 단원구 선부동 75-4,69,37.342662,126.800622
선부동 노외주차장,경기도 안산시 단원구 선부동 779,20,37.337335,126.804768
선부동 주택가주차장,경기도 안산시 단원구 선부동 969-16,7,37.337026,126.804121
선부동주택가주차장,경기도 안산시 단원구 선부동 971-9,7,37.33619026,126.8041984
선부동 노외주차장 46호,경기도 안산시 단원구 선부동 991-21,47,37.340241,126.793025
선부동28호노외주차장,경기도 안산시 단원구 선부동 산 151-12,81,37.336561,126.802905
와동 주택가주차장,경기도 안산시 단원구 와동 108-8,5,37.340625,126.828608
주택가 주차장,경기도 안산시 단원구 와동 110-2,7,37.34111023,126.827565
와동 136호 주차장,경기도 안산시 단원구 와동 205-1,32,37.334057,126.828544
와동 135호 주차장,경기도 안산시 단원구 와동 227,64,37.336092,126.828465
와동30호 노외주차장,경기도 안산시 단원구 와동 320-9,141,37.347839,126.824305
해동주차장,부산광역시 해운대구 우1동381-1,16,35.1687784,129.1562958
강남주차장,부산광역시 해운대구 반송1동250-1751,3,35.2215669,129.1520792
해운대비치주차장,부산광역시 해운대구 우1동649-1,17,35.159303,129.1565019
고곡리 공동주차장,경상남도 창녕군 남지읍 고곡리 443-6,27,35.44317481,128.4268974
옥산마을 공동주차장,경상남도 창녕군 남지읍 학계리 935-4,8,35.39215041,128.4550506
모터사이클 경기장 앞,경상남도 창녕군 남지읍 남지리 178-17,30,35.3933016,128.4863328
남지읍사무소 뒤,"경상남도 창녕군 남지읍 남지리 589-16, 590-157",4,35.38980707,128.4767467
대경아파트아파트 앞 노상주차장,경상남도 창녕군 남지읍 남지리 276-1,90,35.38989806,128.4834641
부부한의원~흥국주유소 노상주차장,경상남도 창녕군 남지읍 남지리 528-14,11,35.39056406,128.4820476
상록아파트앞 노상주차장,경상남도 창녕군 남지읍 남지리 655-3,22,35.38817494,128.4802078
남지문화집 옆 주차장,경상남도 창녕군 남지읍 남지리 777-3,11,35.38609834,128.476393
강변안길 근처 주차장,경상남도 창녕군 남지읍 남지리 642-3,10,35.3872868,128.4816733
고암 미곡마을 공동주차장,경상남도 창녕군 고암면 감리 1048-1,20,35.56573772,128.5642426
계전마을 공동주차장,경상남도 창녕군 계성면 계성리 292-2,16,35.480989,128.5019591
송중동(임시)주차장,서울특별시 강북구 미아동 860-123,6,37.61120246,127.033512
교통광장주차장,서울특별시 강북구 우이동 265,158,37.66336998,127.0126665
시범주차장,서울특별시 강북구 수유동 190-11,37,37.6399531,127.0257738
으뜸공원주차장,서울특별시 강북구 미아동 309-14,72,37.6236742,127.0252199
벽산주차장,서울특별시 강북구 수유동 36-1,36,37.6409021,127.0197238
빨래골주차장,서울특별시 강북구 수유동 49-27,35,37.633421,127.019379
아카데미주차장,서울특별시 강북구 수유동 535-292,61,37.6428716,127.0053218
큰마을길주차장,서울특별시 강북구 미아동 309-63,41,37.62359859,127.0248846
나눔터길주차장,서울특별시 강북구 수유동 605-2,50,37.635193,127.019186
가오천주차장,서울특별시 강북구 수유동 181-1,60,37.64361484,127.025127
말흘리 공동주차장,경상남도 창녕군 창녕읍 말흘리 154,5,35.53859887,128.5026238
송현마을 공동주차장 (원불교 근처),"경상남도 창녕군 창녕읍 송현리 156, 154-3",14,35.5434566,128.500143
창녕시장주차장 확장,경상남도 창녕군 창녕읍 송현리 261-5,13,35.54178042,128.4992694
신당리 주차장,경상남도 창녕군 창녕읍 말흘리 849-43,14,35.540342,128.5033104
교하새길 주차장,경상남도 창녕군 창녕읍 교하리 205-1,50,35.53921305,128.498766
낙영마을 공동주차장,경상남도 창녕군 창녕읍 말흘리 737,10,35.53246375,128.5034707
창락마을 공동주차장,경상남도 창녕군 창녕읍 퇴천리 392-3,7,35.52010994,128.4979755
말흘리 공동주차장 확장,경상남도 창녕군 창녕읍 말흘리 153,3,35.53859887,128.5026238
구 공설운동장 주차장,경상남도 창녕군 창녕읍 술정리 374-4,70,35.54020353,128.4875159
동삼층석탑 주차장,경상남도 창녕군 창녕읍 술정리 99,47,35.5395154,128.4949846
남지문화길 노상주차장,경상남도 창녕군 남지읍 남지리 758-558,82,35.386401,128.4761267
선부광장,"경기도 안산시 단원구 선부동 1074,(일대)",249,37.335162,126.809087
근로자시민문화센터옆,경기도 안산시 단원구 선부동 1076-12,73,37.335309,126.812003
선부동 주택가주차장,경기도 안산시 단원구 선부동 1097-15,7,37.345119,126.816179
선부동 주택가주차장,경기도 안산시 단원구 선부동 1103-10,17,37.346438,126.816451
선부동주택가주차장,경기도 안산시 단원구 선부동 1104-10,10,37.342456,126.805108
주택가 주차장,경기도 안산시 단원구 선부동 1114-8,10,37.347427,126.814775
선부동 주택가주차장,경기도 안산시 단원구 선부동 1115-17,9,37.347032,126.815034
선부동 52호 노외주차장,경기도 안산시 단원구 선부동 1121-14,64,37.346958,126.812313
선부동 주택가주차장,경기도 안산시 단원구 선부동 1122-17,7,37.34627251,126.811811
선부동주택가주차장,경기도 안산시 단원구 선부동 1124-6,8,37.346932,126.811728
문화공원 1주차장,경상남도 창녕군 창녕읍 교리 384-7,39,35.54556205,128.4954804
문화공원 2주차장,경상남도 창녕군 창녕읍 교리 351-1,25,35.5464871,128.4971563
창녕 시외버스터미널 주차장,경상남도 창녕군 창녕읍 술정리 410-85,73,35.5421026,128.4910781
교상주차장,경상남도 창녕군 창녕읍 교상리 66-1,53,35.53982912,128.5013853
창녕시장 주차장,경상남도 창녕군 창녕읍 술정리 45-1,80,35.54007385,128.4973588
창녕시장 주차장,경상남도 창녕군 창녕읍 송현리 282,32,35.54178042,128.4992694
송현마을 공동주차장,경상남도 창녕군 창녕읍 송현리 174,30,35.54241976,128.502351
술정리 주차장,경상남도 창녕군 창녕읍 술정리 164-1,5,35.53688662,128.4950812
창녕읍 공용주차장,경상남도 창녕군 창녕읍 교상리 68-14,30,35.539549,128.500575
창녕시장 정비 및 주차장,경상남도 창녕군 창녕읍 송현리 293,14,35.54178042,128.4992694
미가1번지 건너편 무료주차장,전라남도 함평군 함평읍 기각리 792,30,35.065329,126.517931
함평읍공영주차장(유료주차장),전라남도 함평군 함평읍 내교리 215-4,67,35.06486706,126.5215424
양서파충류생태관,전라남도 함평군 신광면 가덕리 306-3,83,35.138341,126.4937003
성끝마을 임시,울산광역시 동구 방어동 3-8,55,35.482161,129.433896
쇠평어린이공원,울산광역시 동구 동부동 98,76,35.551245,129.434172
마을둘레길 쉼터 주차장,울산광역시 동구 주전동 316,6,35.554849,129.456533
늘푸른아파트 일원 공영주차장,울산광역시 동구 전하동 산 166-6,57,35.528017,129.413703
전하시장 공영주차장,울산광역시 동구 전하동 451-3,31,35.51366494,129.4306222
옥류천 공영주차장,울산광역시 동구 동부동 425-1,83,35.547496,129.424636
월봉골어린이공원 지하주차장,울산광역시 동구 화정동 952,45,35.49234715,129.4253875
울산대교 전망대 공영주차장,울산광역시 동구 화정동 산 83,113,35.504577,129.414072
읍내동부영아파트앞노상주차장,충청남도 서산시 읍내동 624-5,35,36.78436886,126.444297
양유정뒤편노상주차장,충청남도 서산시 읍내동 191,61,36.78174335,126.4494019
서산성결교회-왕릉일가간노상주차장,충청남도 서산시 읍내동 121,65,36.7790712,126.4491252
서령새마을금고-전주식당간노상주차장,충청남도 서산시 읍내동 111-13,56,36.77930483,126.4513237
오케이이용원-메르디앙모텔간노상주차장,충청남도 서산시 읍내동 162-3,62,36.7806569,126.4514126
서해중앙교회뒤임시공영주차장,충청남도 서산시 석남동 31-1,63,36.77130919,126.4542301
창리선착장인근임시공영주차장,충청남도 서산시 부석면 창리 295-1,60,36.62480509,126.3666954
센스빌아파트옆임시공영주차장,충청남도 서산시 석남동 104-4,93,36.76787289,126.4602713
라온아파트앞임시공영주차장,충청남도 서산시 석림동 791-1,59,36.77017863,126.4632167
서진부동산뒤임시공영주차장,충청남도 서산시 동문동 359-1,12,36.78311039,126.4606261
대산터미널뒤임시공영주차장,충청남도 서산시 대산읍 대산리 1634,42,36.9394499,126.434378
오사리임시공영1주차장,충청남도 서산시 성연면 오사리 1696,8,36.8268731,126.4445458
오사리임시공영2주차장,충청남도 서산시 성연면 오사리 1699,7,36.829038,126.445716
완도군 공용주차장,전라남도 완도군 완도읍 군내리 308-19(청해진전복나라),30,34.31518645,126.7601667
한양삼익아파트옆,부산광역시 동구 범일동 830-24,22,35.1409748,129.0610412
한양아파트3호동뒤,부산광역시 동구 범일동 830-24,20,35.1409748,129.0610412
한양아파트3호동앞,부산광역시 동구 범일동 830-24,26,35.1409748,129.0610412
행복예식장옆,부산광역시 동구 범일동 830-24,12,35.1409748,129.0610412
화신칼라앞 공영주차장,부산광역시 동구 범일동 830-24,48,35.13884173,129.0599298
흥국생명앞,부산광역시 동구 초량동 45-10,14,35.11870094,129.0412774
범일2동 제1노상공영주차장,부산광역시 동구 범일동 830-9,34,35.13809798,129.0650803
서일상호저축은행-디지탈카피출력소간노상주차장,충청남도 서산시 읍내동 240-2,17,36.78267597,126.4515416
평화사진관-동광인쇄소간노상주차장,충청남도 서산시 동문동 928-1,54,36.7823063,126.4534531
감전시장주변,부산광역시 사상구 감전동 132-7,111,35.15465512,128.9861379
파라곤호텔주변,부산광역시 사상구 괘법동 565-6,33,35.16190916,128.9804382
학장지구대주변,부산광역시 사상구 학장동 242-1,224,35.14614847,128.9845727
한국강관주변,부산광역시 사상구 감전동 949-7,339,35.14764235,128.9730052
위생처리장주변,부산광역시 사상구 감전동 509-11,229,35.13710101,128.9686434
동영공업주변,부산광역시 사상구 학장동 748-1,414,35.14084027,128.9752151
공영주차장(주례역),부산광역시 사상구 주례동 506,22,35.15000861,129.0040872
공영주차장(사상초등학교),부산광역시 사상구 덕포동 752-3,31,35.1676053,128.9851336
공영주차장(사상전화국),부산광역시 사상구 학장동 281-9,267,35.14712995,128.9915395
해표사료주변,부산광역시 사상구 감전동 127-1,106,35.15725882,128.9754935
공영주차장(신일금속),부산광역시 사상구 학장동 723-1,389,35.14700812,128.9789585
모라1동주민자치센터,부산광역시 사상구 모라동 1347-4,121,35.19091357,128.9912597
삼락재첩거리주변,부산광역시 사상구 삼락동 70-21,127,35.19343902,128.9858334
엄궁외식1번가주변,부산광역시 사상구 엄궁동 652-7,74,35.12658641,128.9670652
학장동주민센터주변,부산광역시 사상구 학장동 386-1,214,35.14410084,128.9873097
동서고가도로밑주변,부산광역시 사상구 주례동 394,92,35.15248721,129.0028664
동신운수옆복개공영주차장,부산광역시 사상구 주례동 1160-53,91,35.14963302,128.9977998
월드스포츠-한마음목욕탕간노상주차장,충청남도 서산시 석림동 634-9,22,36.77607135,126.4599181
서울정형외과-청송갈비간노상주차장,충청남도 서산시 동문동 283-11,14,36.78014608,126.4579225
인주빌딩-동인광고기획간노상주차장,충청남도 서산시 읍내동 249-1,9,36.78337767,126.4512901
창녕시장 쌀전주차장,경상남도 창녕군 창녕읍 술정리 1-10,62,35.54213931,128.4973663
박물관 주차장,경상남도 창녕군 창녕읍 교리 56,50,35.54540564,128.5054413
자하곡주차장,경상남도 창녕군 창녕읍 말흘리 13,77,35.54185172,128.514906
자하곡 제2주차장,경상남도 창녕군 창녕읍 말흘리 35,304,35.54040923,128.5074737
통제영주차장,경상남도 통영시 문화동 109,143,34.84686892,128.4237468
충렬사주차장,경상남도 통영시 명정동 217-2,80,34.84714751,128.4181114
남망산조각공원밑주차장,경상남도 통영시 동호동 239-1,143,34.84184256,128.4270834
열무정주차장,경상남도 통영시 동호동 304-7,27,34.83952456,128.4299689
해양공원주차장,경상남도 통영시 미수동 913-22,81,34.82984394,128.4060523
이순신공원주차장,경상남도 통영시 정량동 692-1,118,34.84384752,128.4408691
명정주차장,경상남도 통영시 명정동 470-38,15,34.84659034,128.4149812
통영동백주차장,경상남도 통영시 무전동 988-5,41,34.85896381,128.4289982
여객선터미널주차장,경상남도 통영시 서호동 316,493,34.8397931,128.4202281
북신전통시장 주차장,경상남도 통영시 북신동 662-8,87,34.8550285,128.4278626
중앙전통시장 주차장,경상남도 통영시 문화동 159,202,34.84579497,128.423397
금샘로노상공영주차장,부산광역시 금정구 남산동 970-1,183,35.27166663,129.084858
온천천복개도로노상공영주차장,부산광역시 금정구 남산동 18-2,88,35.2717971,129.0894366
금정농협앞노상공영주차장,부산광역시 금정구 남산동 320-19,11,35.2715838,129.0887885
서1동제1공영주차장,부산광역시 금정구 서동 161-26,22,35.21810034,129.0992917
서1동제2공영주차장,부산광역시 금정구 서동 509-2,87,35.21829209,129.0970619
서1동제3공영주차장,부산광역시 금정구 서동 302-1973,80,35.2160512,129.0953033
기장주차장,부산광역시 해운대구 우1동542-25,16,35.1616992,129.1594884
대영주차장,부산광역시 해운대구 재송1동1071-26,7,35.1862321,129.1214635
부일주차장,부산광역시 해운대구 우1동151-4외1,9,35.1669228,129.1599467
성심주차장,부산광역시 해운대구 반송1동261-131,12,35.2267172,129.1479228
송민주차장,"부산광역시 해운대구 반송1동250-1004,1005",6,35.2223197,129.1496952
유진주차장,"부산광역시 해운대구 반송2동331-8,13",30,35.2314316,129.1535809
주차장,부산광역시 해운대구 중동 276-1,20,35.1685747,129.1718694
누리주차장,부산광역시 해운대구 우동 641-14,12,35.1616302,129.1563263
한라주차장,부산광역시 해운대구 좌동 1521-3,363,35.1813558,129.1728433
해운대블루주차장,부산광역시 해운대구 좌동 1360,43,35.1682104,129.1638399
대천주차장,부산광역시 해운대구 좌동 1482-4,20,35.1677579,129.1780157
5994주차장,부산광역시 해운대구 반여동 1607-18,3,35.19930983,129.1319426
청도주차장,부산광역시 해운대구 반송1동250-1687,15,35.2218227,129.152665
극동주차장,부산광역시 해운대구 중1동944-14,11,35.1606159,129.1708991
리베라세이브존주차장,부산광역시 해운대구 중1동1394-174,45,35.1627937,129.1619078
대신주차장,부산광역시 해운대구 반여3동1603-19,7,35.2003818,129.1313546
흥안인더스트리,부산광역시 해운대구 우1동626-4,10,35.1602567,129.1604558
GS타임즈 해운대 제3,부산광역시 해운대구 우동 1305,6,35.1616903,129.1601316
한양주차장,부산광역시 해운대구 재송1동1087-1,13,35.1868287,129.1241946
GS타임즈 해운대 제2,부산광역시 해운대구 우1동762-46,18,35.1593947,129.1535068
행운주차장,부산광역시 해운대구 반여1동873,13,35.2086515,129.1241439
구좌읍 무료 주차장,제주특별자치도 제주시 구좌읍 김녕리 1352-1,4,33.55778337,126.748646
구좌읍 무료 주차장,제주특별자치도 제주시 구좌읍 세화리 1500-5,15,33.52618605,126.8572998
구좌읍 무료 주차장,제주특별자치도 제주시 구좌읍 평대리 3351,70,33.52496519,126.8530852
구좌읍 무료 주차장,제주특별자치도 제주시 구좌읍 세화리 3641-1,69,33.52689046,126.8562701
구좌읍 무료 주차장,제주특별자치도 제주시 구좌읍 김녕리 492,79,33.55840232,126.7627013
구좌읍 무료 주차장,제주특별자치도 제주시 구좌읍 월정리 648-3,9,33.55760631,126.7944593
구좌읍 무료 주차장,제주특별자치도 제주시 구좌읍 김녕리 3341-3,135,33.52829701,126.7698688
구좌읍 무료 주차장,제주특별자치도 제주시 구좌읍 하도리 3204-1,115,33.52411965,126.8640765
구좌읍 무료 주차장,제주특별자치도 제주시 구좌읍 평대리 3164-1,70,33.491229,126.8102483
애월읍 무료 주차장,제주특별자치도 제주시 애월읍 하귀2리 1892-1,23,33.479628,126.4033243
애월읍 무료 주차장,제주특별자치도 제주시 애월읍 애월리 2060-2,13,33.46511037,126.316515
애월읍 무료 주차장,제주특별자치도 제주시 애월읍 상귀리 1008-1,30,33.45259081,126.4090892
한림읍 무료 주차장,제주특별자치도 제주시 한림읍 금능리 1428,15,33.38926929,126.2320651
한림읍 무료 주차장,제주특별자치도 제주시 한림읍 금능리 2016,100,33.39100169,126.2378283
우도면 무료 주차장,제주특별자치도 제주시 우도면 연평리 611-1,36,33.50935083,126.9617935
우도면 무료 주차장,제주특별자치도 제주시 우도면 연평리 317-1,24,33.49853501,126.9676478
우도면 무료 주차장,제주특별자치도 제주시 우도면 연평리 682-1,25,33.5122528,126.9594878
조천읍 무료 주차장,제주특별자치도 제주시 조천읍 신촌리 2542-1,7,33.53464472,126.6159777
조천읍 무료 주차장,제주특별자치도 제주시 조천읍 조천리 2714-5,150,33.54193876,126.6343994
조천읍 무료 주차장,제주특별자치도 제주시 조천읍 함덕리 921-3,7,33.53831185,126.6676081
조천읍 무료 주차장,제주특별자치도 제주시 조천읍 함덕리 1002-83,223,33.54133227,126.6692952
진영주차장,"부산광역시 해운대구 반송1동250-2296,2297",7,35.2199177,129.1530005
삼성주차장,"부산광역시 해운대구 중1동1382-1,6,8,10",84,35.1619029,129.1617414
성진주차장,부산광역시 해운대구 재송1동1118-4,16,35.1853325,129.1261284
태영주차장,부산광역시 해운대구 우1동544-1,12,35.1615608,129.1598157
일승주차장,부산광역시 해운대구 좌1동420-1,14,35.1736711,129.1770691
제일주차장,부산광역시 해운대구 반송1동744-87외1,13,35.224468,129.146518
해운대역주차장,부산광역시 해운대구 우1동552-21 (구562-4),20,35.1651678,129.1606024
고려주차장,부산광역시 해운대구 중1동1378-77,12,35.1636612,129.1635556
제일주차장,부산광역시 해운대구 우1동175-3,24,35.1668244,129.1608015
신도시주차장,부산광역시 해운대구 좌1동912,45,35.1744582,129.1739847
대성주차장,부산광역시 해운대구 반여1동955,27,35.2071141,129.1256602
24시주차장,부산광역시 해운대구 우1동647-8,32,35.1599151,129.1556435
해우주차장,부산광역시 해운대구 중1동1396-59,24,35.1608661,129.1627035
우동주차장,"부산광역시 해운대구 우1동437-3,439-1,440-3",29,35.167398,129.1592619
대성주차장,부산광역시 해운대구 반송1동259-111,12,35.2241644,129.1528629
해운대구청주차장,부산광역시 해운대구 중1동1378-95,99,35.1629746,129.1637214
반여동주차장,부산광역시 해운대구 반여1동740-6,14,35.2115475,129.1258093
신라주차장,"부산광역시 해운대구 재송2동210-27,42",31,35.1880006,129.1212682
신촌주차장,부산광역시 해운대구 반여1동1248,13,35.205213,129.1255681
반송주차장,부산광역시 해운대구 반송1동744-206,7,35.2239602,129.1468404
해천주차장,부산광역시 해운대구 반송1동250-2292,14,35.2202175,129.1527521
구자마을 주차장,전라북도 익산시 황등면 구자리 81-1,30,36.04205194,126.9257529
무동마을 주차장,전라북도 익산시 황등면 구자리 398,26,36.03594736,126.9227787
백길마을 주차장,전라북도 익산시 황등면 황등리 1084-4,20,35.99633917,126.9420902
원신기마을 주차장,전라북도 익산시 황등면 신기리 280-21,18,35.99521203,126.9337903
보삼마을 주차장,전라북도 익산시 황등면 황등리 355-4,7,36.000451,126.946445
임실무료공영주차장,전라북도 임실군 이도리 651-1,64,35.61268128,127.2795069
계남공영주차장,전라북도 장수군 계남면 화음리 968-1,21,35.7029432,127.5777235
장계시장앞주차장,전라북도 장수군 계남면 호덕리 560-3,45,35.728503,127.581106
계북공영주차장,전라북도 장수군 계북면 어전리 865-11,14,35.785239,127.6134324
봉화산 주차장,전라북도 장수군 번암면 노단리 125-6,43,35.527019,127.562986
산서공영주차장,전라북도 장수군 산서면 동화리 162-6,54,35.584314,128.5320849
대곡호망향동산주차장,전라북도 장수군 장계면 대곡리 297-7,19,35.696687,127.621431
무령고개장안산주차장,전라북도 장수군 장계면 대곡리 산92-10,29,35.643991,127.616232
만남의광장주차장,전라북도 장수군 장계리 350-5,20,35.731675,127.583402
왕자주차장,부산광역시 해운대구 반여1동1405-37,10,35.1960369,129.1177989
옥도면 선유1,전라북도 군산시 옥도면 선유도리 353-2,86,35.808306,126.414918
양지주차장,부산광역시 해운대구 반송1동250-2343,6,35.2196771,129.1527005
장원주차장,"부산광역시 해운대구 반여1동1244-4,5",12,35.2052554,129.1248878
송림주차장,"부산광역시 해운대구 우1동703-1,19",8,35.1582576,129.1564871
미포주차장,부산광역시 해운대구 중1동1035-2,8,35.1594025,129.1705414
반여주차장,부산광역시 해운대구 반여1동1010-9,12,35.2057683,129.1249827
예스렌트카주차장,부산광역시 해운대구 중1동836,6,35.1631748,129.1728676
다은마을 주차장,전라북도 익산시 함라면 다망리 200-4,16,36.03494638,126.911865
신함마을 주차장,전라북도 익산시 함라면 신목리 573,6,36.014331,126.8953734
어등마을 주차장,전라북도 익산시 함라면 신대리 502-11,16,36.04282785,126.8982909
정자마을 주차장,전라북도 익산시 함라면 남당리 557-1,15,36.0483247,126.975684
진목마을 주차장,전라북도 익산시 함라면 신목리 333-21,19,36.02022066,126.9022393
행동마을 주차장,전라북도 익산시 함라면 함열리 264-3,60,36.057828,126.909419
회룡마을 주차장,전라북도 익산시 함라면 다망리 423-5,75,36.024652,126.9123767
석치마을 주차장,전라북도 익산시 함열읍 석매리 873-1,50,36.0576873,126.9560552
정동마을 주차장,전라북도 익산시 함열읍 와리 1217-5,12,36.071062,126.963721
학선마을 주차장,전라북도 익산시 함열읍 흘산리 286-12,15,36.054143,126.9738895
함열교회 주차장,전라북도 익산시 함열읍 와리 564,45,36.08077036,126.960242
상시중마을 주차장,전라북도 익산시 함열읍 와리 233-3,10,36.080778,126.9647801
우이동주차장,서울특별시 강북구 우이동 105-2,82,37.65671363,127.0115911
송천동주차장,서울특별시 강북구 미아동 439-138,59,37.614536,127.025126
대지시장길주차장,서울특별시 강북구 미아동 703-8,47,37.620104,127.020227
송중동주차장,서울특별시 강북구 미아동 48-1,53,37.611602,127.033569
구세군길주차장,서울특별시 강북구 미아동 791-1364,87,37.62607275,127.0134713
번2동주차장,서울특별시 강북구 번동 148-140,20,37.626781,127.0365899
색동공원주차장,서울특별시 강북구 수유동 49-7,80,37.63333727,127.0206236
인수동주차장,서울특별시 강북구 수유동 126,73,37.63617032,127.0185352
향천리 공영주차장,충청남도 예산군 향천리 138-6,5,36.6827078,126.8519993
신례원 창소리 공영주차장,충청남도 예산군 창소리 69-2,7,36.7301451,126.8400668
예산4리 공영주차장,충청남도 예산군 예산읍 예산리 304-3,16,36.6775306,126.8507774
대회리 공영주차장,충청남도 예산군 예산읍 대회리 221-3,23,36.67555547,126.8488256
예산리 공영주차장,충청남도 예산군 예산리 407-5,25,36.67808841,126.845908
퇴계로오토바이 옆 공영주차장,충청남도 예산군 예산읍 주교리 280-3,48,36.68238305,126.8283408
버스터미널 앞 공영주차장,충청남도 예산군 예산읍 산성리 640-1,27,36.6943735,126.8319209
도시개발사업 구역 내 공영주차장,충청남도 예산군 예산읍 예산리 776,100,36.6838046,126.8508843
신성아파트 인근 공영주차장,충청남도 예산군 예산읍 예산리 622-5,64,36.68330573,126.8457364
예산공립어린이집인근 공영주차장,충청남도 예산군 예산읍 예산리 316-1,20,36.6776059,126.8508996
구)중앙극장 공영주차장,충청남도 예산군 예산읍 예산리 157-6,35,36.68014372,126.8500109
예산읍공영주차장,충청남도 예산군 예산읍 예산리 453-1,43,36.67818948,126.8488299
삽교읍공영주차장,충청남도 예산군 삽교읍 두리 575-55,45,36.68827624,126.7391674
광시면 공영주차장,충청남도 예산군 광시면 광시리 77-3,170,36.55015588,126.7738831
예산교육지원청 입구 공영주차장,충청남도 예산군 예산읍 산성리 836,44,36.68973333,126.8316521
예산학생수영장 앞 공영주차장,충청남도 예산군 예산읍 산성리 865,30,36.69045344,126.8336489
산성리 고래사냥 옆 공영주차장,충청남도 예산군 예산읍 산성리 755-1,21,36.69213058,126.8343995
덕산천주교회 앞 공영주차장,충청남도 예산군 덕산면 읍내리 230-21,21,36.70387013,126.6684939
주교지하차도 옆 공영주차장,충청남도 예산군 예산읍 주교리 278-3,15,36.68272537,126.8282673
구청앞주차장,서울특별시 강북구 수유동 142,21,37.63962023,127.0261449
수유2동주차장,서울특별시 강북구 수유동 660-30,62,37.64603012,127.021877
양평해장국 옆 공영주차장,충청남도 예산군 예산읍 주교리 213-3,15,36.68591492,126.830757
주교리 공영주차장,충청남도 예산군 예산읍 주교리 243-2,31,36.68381287,126.8294033
수철리 공영주차장,충청남도 예산군 예산읍 수철리 445-1,63,36.7091528,126.8740901
신동아아파트앞 공영주차장,충청남도 예산군 예산읍 예산리 629-4,11,36.6828216,126.8446614
고덕면사무소 옆 공영주차장,충청남도 예산군 고덕면 대천리 704,18,36.74507198,126.7030251
산성리 성당뒤 공영주차장,충청남도 예산군 예산읍 산성리 334-6,16,36.689309,126.831691
덕산면 읍내2리 공영주차장,충청남도 예산군 덕산면 읍내리 283-16,4,36.705885,126.671688
예산초등학교 뒤 공영주차장,"충청남도 예산군 예산읍 예산리 75-1, 74-5, 74-6, 73-1",27,36.68408866,126.850531
내포신도시 공영주차장,충청남도 예산군 삽교읍 목리 1183,32,36.66102215,126.6842947
산성리 게이트볼장 앞 공영주차장,충청남도 예산군 예산읍 산성리 235-3,44,36.6913033,126.8292616
문화동 인근 공영주차장,충청남도 예산군 예산읍 주교리 151-1,10,36.68328812,126.8359272
덕산 또순네 식당 앞 공영주차장,충청남도 예산군 덕산면 읍내리 283-2,32,36.70546676,126.6705462
백제식당뒤 공영주차장,충청남도 예산군 예산읍 예산리 278-1,10,36.721234,126.841556
예산공판장 옆 공영주차장,충청남도 예산군 예산읍 예산리 137,10,36.68142758,126.8498126
예산 치안센터뒤 공영주차장,충청남도 예산군 예산읍 예산리 506-1,10,36.67938938,126.8485098
군청앞진도화원앞 공영주차장,충청남도 예산군 예산읍 예산리 581-3,15,36.68123119,126.8484346
우방아파트앞 공영주차장,충청남도 예산군 예산읍 산성리 656,49,36.69368612,126.8358374
금오초교후문 공영주차장,충청남도 예산군 예산읍 산성리 794,23,36.69109744,126.8334321
신례원 공영주차장,충청남도 예산군 예산읍 신례원리 247-8,55,36.7274718,126.846412
덕산면 공영주차장,충청남도 예산군 덕산면 읍내리 225-3,46,36.70356401,126.6672955
신청사앞 공영주차장,충청남도 예산군 예산읍 예산리 791,50,36.67925785,126.8443461
조촌동 1,전라북도 군산시 조촌동 790-3,171,35.97296566,126.7326535
조촌동 2,전라북도 군산시 경장동 504-4,56,35.969749,126.7329215
옥도면 장자1,전라북도 군산시 옥도면 장자도리 57,145,35.811406,128.5320849
옥도면 장자2,전라북도 군산시 옥도면 장자도리 12-1,80,35.811846,126.3977069
옥도면 선유2,전라북도 군산시 옥도면 선유도리 279-8,359,35.8131457,126.413309
옥도면 선유3,전라북도 군산시 옥도면 선유도리 474-2,118,35.82459919,126.4161044
금릉공영주차장,충청북도 충주시 금릉동730,150,36.98880164,127.9274955
연수1공영주차장,충청북도 충주시 연수동 1538,60,36.98421316,127.9410771
연수2공영주차장,충청북도 충주시 연수동 1466,63,36.9831283,127.938237
울진향교앞 공영주차장,경상북도 울진군 울진읍 향교로34-13,30,36.99455149,129.398506
신성슈퍼앞(성심한의원) 공영주차장,경상북도 울진군 울진읍 강변로99,50,36.990344,129.399236
평해시장옆 공영주차장,경상북도 울진군 평해읍 평해로 61,52,36.726032,129.4412285
평해읍 광장 공영주차장,경상북도 울진군 평해읍 평해로 82,32,36.728099,129.441514
평해버스정류장앞 공영주차장,경상북도 울진군 평해읍 평해리 813-1,15,36.72556788,129.4417607
백암상가앞 공영주차장,경상북도 울진군 온정면 백암온천로 1266-1,36,36.722437,129.342473
죽변한전사택입구 공영주차장,경상북도 울진군 죽변면 죽변북로 58,27,37.064148,129.419173
죽변파출소앞(죽변4리) 공영주차장,경상북도 울진군 죽변면 죽변중앙로 159,169,37.059607,129.421699
후포해안도로 공영주차장,경상북도 울진군 후포면 울진대게로 28,278,36.676891,129.443688
후포면사무소앞  공영주차장,경상북도 울진군 후포면 삼율로 7-20,11,36.678614,129.4390912
울진시장 공영주차장,경상북도 울진군 울진읍 읍내1길18,151,36.99191817,129.4022802
목동,서울특별시 양천구 목동 915,894,37.529393,126.879105
공단본부,서울특별시 양천구 목동 919-5,22,37.530311,126.871349
바람개비,서울특별시 양천구 목동 919-8,186,37.530285,126.874151
한마음,서울특별시 양천구 목동 914-5,426,37.530767,126.878046
신정교 주차장,서울특별시 양천구 신정동 871-3,285,37.518377,126.877689
보은도서관 옆,충청북도 보은군 보은읍 삼산리 125-4,2,36.48378948,127.715999
대신리치빌아파트 앞,충청북도 보은군 보은읍 삼산리 151-25,7,36.48625785,127.7168754
한솔식당 앞,충청북도 보은군 보은읍 교사리 87-16,16,36.4883576,127.7174879
장신1교~통계슈퍼,충청북도 보은군 보은읍 삼산리 202-38,40,36.4844418,127.714162
나눔제13호,경기도 시흥시 목감동 708(P6),26,37.3922876,126.8704543
진화아파트 근처,충청북도 보은군 보은읍 삼산리 171-30,8,36.48745127,127.7155444
보은중학교 옆,충청북도 보은군 보은읍 이평리 36-2,15,36.48637519,127.7269925
이안리츠빌 앞,충청북도 보은군 보은읍 이평리 153-1,12,36.48670303,127.7265581
동다리하상,충청북도 보은군 보은읍 교사리 440-1,97,36.48637005,127.7218062
남다리하상,충청북도 보은군 보은읍 죽전리 132-4,114,36.48070776,127.7201239
송화식당 앞,충청북도 보은군 보은읍 삼산리 199-9,19,36.48513905,127.7122172
정이품송,충청북도 보은군 속리산면 상판리 239,42,36.51923718,127.8160938
삼승 재래시장,충청북도 보은군 삼승면 원남리 190-2,34,36.39589278,127.732463
남보은농협 근처,충청북도 보은군 삼승면 원남리 199,12,36.39624649,127.7317954
속리산휴양사업소,충청북도 보은군 속리산면 상판리 241,116,36.5188759,127.8160266
충주천제1공영주차장,충청북도 충주시 성서동50,90,36.97240593,127.9301848
충주천제2공영주차장,충청북도 충주시 성서동453,94,36.97029816,127.9312
칠금공영주차장,충청북도 충주시 칠금동1017,163,36.98097073,127.9160692
선부동 노외주차장(141호),경기도 안산시 단원구 선부동 1030-16,61,37.344813,126.807715
노외 주차장(주택),경기도 안산시 단원구 선부동 1031-15,10,37.342431,126.805609
선부동 주택가주차장,경기도 안산시 단원구 선부동 1038-4,7,37.343521,126.806063
선부동 노외주차장(주택),경기도 안산시 단원구 선부동 1041-12,10,37.343807,126.806937
선부동 주택가주차장,경기도 안산시 단원구 선부동 1059-7,10,37.340768,126.80815
선부동 주택가주차장,경기도 안산시 단원구 선부동 1061-17,7,37.340753,126.808635
선부동 주택가주차장,경기도 안산시 단원구 선부동 1065-9,9,37.340403,126.807287
선부동 주택가주차장,경기도 안산시 단원구 선부동 1066-3,10,37.340851,126.807012
봉산동임시,"경기도 안성시 봉산동 47,47-2",30,37.00610779,127.2776889
공도제2임시(만정리),경기도 안성시 공도읍 만정리 816-3,28,37.00060233,127.1715205
도기동임시,경기도 안성시 도기동 138,96,37.00373427,127.2659615
당왕동(쌍용아파트상가),경기도 안성시 당왕동 545,35,37.0144598,127.2653201
당왕동(제일교회),경기도 안성시 당왕동 553-12,38,37.01396571,127.2627677
공도임시(승두리),경기도 안성시 공도읍 승두리 60-1,7,36.99871514,127.1707836
석정동공영주차장(건축물식),경기도 안성시 석정동 11-1,54,37.00830239,127.2675126
서인동공영주차장(건축물식),경기도 안성시 서인동 47,74,37.00571917,127.2702675
동본동공영주차장(건축물식),경기도 안성시 동본동 21,87,37.00789048,127.2719562
월명동 4,전라북도 군산시 장미동 1-15,85,35.988493,126.7140909
월명동 5,전라북도 군산시 중앙로1가11-1,102,35.98772627,126.7117236
월명동 6,전라북도 군산시 신창동 46-1,24,35.98676791,126.7104599
월명동 7,전라북도 군산시 월명동 6-15,209,35.98512506,126.708858
주안5동제5노상주차장,인천광역시 미추홀구 주안동 43-1,23,37.4651055,126.6815609
주안6동제1노상주차장,인천광역시 미추홀구 주안동 950,20,37.45986417,126.6910601
주안6동제2노상주차장,인천광역시 미추홀구 주안동 995,36,37.4597337,126.6860602
주안7동제1노상주차장,인천광역시 미추홀구 인하로266번길5,32,37.44779192,126.6780367
주안4동제5노외주차장,인천광역시 미추홀구 주안동 1474-62,8,37.4534569,126.681849
주안4동제6노외주차장,인천광역시 미추홀구 주안동 1511-38,4,37.453177,126.685958
주안4동제7노외주차장,인천광역시 미추홀구 주안동 415-24,4,37.45477818,126.683932
주안6동제1노외주차장,인천광역시 미추홀구 주안동 951-5,21,37.459153,126.6906108
주안6동제2노외주차장,인천광역시 미추홀구 주안동 45,31,37.46413189,126.694017
골드클래스옆임시공영주차장,충청남도 서산시 성연면 일람리 1116,36,36.82199344,126.4516826
호수공원 베스킨라빈스맞은편임시공영주차장,충청남도 서산시 예천동 1274-4,54,36.772181,126.449317
호수공원 베스킨라빈스인근임시공영주차장,충청남도 서산시 예천동 1275-4,49,36.77245673,126.4490471
해미읍성지성루앞임시공영주차장,충청남도 서산시 해미면 읍내리 423-1,26,36.71446768,126.5471554
행운빌옆임시공영주차장,충청남도 서산시 예천동 1293-1,46,36.77157749,126.4498778
대산홈마트옆임시공영주차장,충청남도 서산시 대산읍 대산리 216-5,47,36.93992968,126.4313557
호수공원마포갈매기옆임시공영주차장,충청남도 서산시 예천동 1266-6,18,36.77422818,126.4486312
성서공단남로32길 인근,대구광역시 달서구 월암동 915,5,35.82500817,128.5090049
성서공단남로36길 인근,대구광역시 달서구 월암동 920-6,17,35.82818985,128.512586
성서공단남로36길 인근,대구광역시 달서구 월암동 926,3,35.8288151,128.5122612
성서공단로25길인근,대구광역시 달서구 갈산동 358,12,35.83845458,128.4925543
대산칼라인쇄사옆임시공영주차장,충청남도 서산시 읍내동 466-13,47,36.78432245,126.4490429
맘편한약국뒤임시공영주차장,충청남도 서산시 양대동 421-2,60,36.74553082,126.4488679
화곡3리마을회관앞임시공영주차장,충청남도 서산시 대산읍 화곡리 9-8,29,37.00079553,126.4520595
KellyFlora앞임시공영주차장,충청남도 서산시 예천동 1295-1,19,36.7715064,126.4493138
삼해횟집옆임시공영주차장,충청남도 서산시 읍내동 236-1,13,36.78216994,126.451236
대부북동 51호 노외주차장,경기도 안산시 단원구 대부북동 429-3,257,37.2401345,126.5829601
대부도노외주차장(1),경기도 안산시 단원구 대부북동1841-10,268,37.286544,126.574902
대부도노외주차장(2),경기도 안산시 단원구 대부북동1849-6,169,37.283819,126.570597
선부동 주택가주차장,경기도 안산시 단원구 선부동 1026-7,8,37.342948,126.804434
완도군 공용주차장,전라남도 완도군 완도읍 군내리 428(등기소 앞),26,34.31110525,126.7605303
완도군 공용주차장,전라남도 완도군 완도읍 군내리 423-2(청향빌라 앞),5,34.31018478,126.7600419
대동복개도로(대동시장길),대전광역시 동구 대동복개천(새들뫼@ 앞길),26,36.3118844,127.4548329
완도군 공용주차장,전라남도 완도군 완도읍 군내리 1162-7(현대APT건너편),67,34.31161752,126.7394438
완도군 공용주차장,전라남도 완도군 완도읍 군내리 650-1(완도군청),194,34.31097163,126.7549596
화봉동 422-1,울산광역시 북구 화봉동 422-1,6,35.59280303,129.3619876
화봉동 1460-4,울산광역시 북구 화봉동 1460-4,8,35.59084447,129.3693805
현대자동차사택,울산광역시 북구 양정동 772-1,23,35.54152596,129.3921284
편백산림욕장,울산광역시 북구 달천동 767-1,70,35.64120624,129.3022263
달천농공단지3,울산광역시 북구 달천동 218-4,44,35.6385017,129.3122406
중산,울산광역시 북구 중산동 1283,38,35.65351046,129.3503194
호계동 589-1,"울산광역시 북구 호계동 589-1,589,589-2",11,35.62560517,129.3600385
매곡동 595-1,"울산광역시 북구 매곡동 595-1,595-2,595-3",3,35.64365961,129.3559061
"연암동 442-1, 442-2","울산광역시 북구 연암동 442-1,442-2",57,35.58344191,129.3672573
두서농공단지 노상,울산광역시 울주군 두서면 전읍리 298-1,77,35.6689336,129.1719474
웅촌 노상,울산광역시 울주군 웅촌면 곡천리 319-2,126,35.4655725,129.2091146
온산 노상,울산광역시 울주군 온산읍 덕신리 535-8,339,35.4311482,129.3087694
진하해수욕장 노상,울산광역시 울주군 서생면 진하리 315,125,35.3842896,129.3431543
구영 노상,울산광역시 울주군 범서읍 구영리 800-11,111,35.5717086,129.2413646
온산 당월노상,울산광역시 울주군 온산읍 당월리 95-3,40,35.4100138,129.3527959
언양강변,울산광역시 울주군 언양읍 남부리 336-1,327,35.5615405,129.1267894
봉계 Ⅰ,울산광역시 울주군 두동면 봉계리 1274-60,15,35.7138262,129.1976909
대운산 Ⅲ,울산광역시 울주군 온양읍 운화리 1276-2,212,35.3952137,129.2446968
두서 인보,울산광역시 울주군 두서면 서하리 264-11,43,35.6408406,129.1588395
선바위,울산광역시 울주군 범서읍 입암리 1-4,66,35.58437336,129.2331353
한산대첩광장주차장,경상남도 통영시 항남동 129-2,165,34.84040881,128.4246267
유람선터미널주차장,경상남도 통영시 도남동 635,209,34.828272,128.432905
착량묘앞주차장,경상남도 통영시 당동 20-2,9,34.83542627,128.4107703
서호벼락당주차장,경상남도 통영시 서호동 139,28,34.8431827,128.4202235
용문주차장,경상남도 통영시 당동 1-3,8,34.83609021,128.4117029
서호동노외주차장,경상남도 통영시 서호동 163-23,29,34.84278999,128.4190843
무전제2주차장,경상남도 통영시 무전동 1022,86,34.85947816,128.4237735
서호복개천주차장,경상남도 통영시 서호동 301,26,34.84252408,128.4177708
무전제1주차장,경상남도 통영시 무전동 1035,50,34.85906753,128.4277523
무전제3주차장,경상남도 통영시 무전동 1057-18,33,34.86101061,128.4237924
무전골프장앞주차장,경상남도 통영시 무전동 244-2,40,34.85575784,128.4356966
무전제4주차장,경상남도 통영시 무전동 1061-6,30,34.86118485,128.4255213
북신시장주차장,경상남도 통영시 북신동 690,22,34.85583524,128.4266091
항남주차장,경상남도 통영시 항남동 240,18,34.8414889,128.4225329
시민문화회관밑주차장,경상남도 통영시 동호동 248-5,30,34.84303273,128.4270239
미륵도공영주차장,경상남도 통영시 봉평동 446,91,34.83284101,128.4128347
태평주차장,경상남도 통영시 태평동 528-1,14,34.84673374,128.4256216
죽림공영임시주차장,경상남도 통영시 광도면 죽림리 1564,45,34.88934348,128.4187853
용화사광장밑주차장,경상남도 통영시 봉평동 288,33,34.8229012,128.415102
동호주차장,경상남도 통영시 동호동 315,65,34.84152026,128.4315429
남망산주차장,경상남도 통영시 동호동 200,53,34.84337096,128.4282503
내죽도공원주차장,경상남도 통영시 광도면 죽림리 1574-3,22,34.88138485,128.4209764
경북체고(신교동) 앞 공영주차장,경상북도 경산시 신교동 108-12,38,35.811785,128.7392477
산생마을,울산광역시 동구 전하동 737,18,35.510751,129.420463
일산동(232-4),울산광역시 동구 일산동 232-4,10,35.501819,129.432921
화정동(880-21),울산광역시 동구 화정동 880-21,7,35.491701,129.421621
화정동(879-17),울산광역시 동구 화정동 879-17,6,35.491804,129.421049
화정동(651-3),울산광역시 동구 화정동 651-3,8,35.4948708,129.4230122
방어동(462-12),울산광역시 동구 방어동 462-12,5,35.487091,129.423579
일산동(961-1),울산광역시 동구 일산동 961-1,30,35.494615,129.429286
방어동(509-1),울산광역시 동구 방어동 509-1,41,35.482987,129.416002
화정동(138-38),울산광역시 동구 화정동 138-38,5,35.503345,129.419278
대왕암,울산광역시 동구 일산동 911-1,261,35.48891329,129.4368869
일산동(948-4),울산광역시 동구 일산동 948-4,127,35.498023,129.426267
슬도 공영주차장,울산광역시 동구 방어동 2-3,37,35.48074388,129.432043
전하1동(544-133),울산광역시 동구 전하동 544-133,8,35.512862,129.429091
방어동(355-7),울산광역시 동구 방어동 355-7,5,35.485106,129.422385
월명동 2,전라북도 군산시 명산동 21-6,6,35.982291,126.7097425
전하공영주차장,울산광역시 동구 전하동 638-4,147,35.5107835,129.4294553
방어동(1082-2),울산광역시 동구 방어동 1082-2,18,35.486313,129.419401
양산동쌈지,광주광역시 북구 양산동 254-66외1필지,9,35.20830285,126.872265
두암3동쌈지,광주광역시 북구 두암동 283-1번지,18,35.164429,126.934089
석곡동쌈지,"광주광역시 북구 망월동 570, 1566-2, 1155-3",6,35.20431907,126.952879
두암2동쌈지,광주광역시 북구 두암동 582-7외1필지,4,35.17585918,126.932013
오치1동쌈지,광주광역시 북구 오치동955-18,7,35.18788405,126.906296
중흥1동주민센터,광주광역시 북구 중흥동 650-7,6,35.16168543,126.9137773
사파동 113-7 임시공영주차장,경상남도 창원시 성산구 사파동 113-7,6,35.221894,128.696251
성주동 138-11 임시공영주차장,경상남도 창원시 성산구 성주동 138-1,7,35.196748,128.712371
중앙동 70-7 임시공영주차장,경상남도 창원시 성산구 중앙동 70-7,4,35.227375,128.677109
가음정공원 임시공영주차장,경상남도 창원시 성산구 가음정동 583-7,200,35.211732,128.5320849
신촌동 4-3 공영주차장,경상남도 창원시 성산구 신촌동 4-3,31,35.209469,128.624803
성주동 73번지 공영주차장,경상남도 창원시 성산구 성주동 73,42,35.184185,128.703892
사파동 59-13 임시 공영주차장,경상남도 창원시 성산구 사파동 59-13,6,35.226244,128.701404
사파동 61-1 임시 공영주차장,경상남도 창원시 성산구 사파동 61-1,7,35.225487,128.701797
해안로공영주차장,경상남도 창원시 마산합포구 신포동1가 70,107,35.19899122,128.5731926
해안로공영유료주차장,경상남도 창원시 마산합포구 신포동2가 64-2,71,35.201084,128.574498
삼정동 제1공영주차장,대전광역시 대덕구 삼정동 310-1,11,36.4499837,127.4668463
중리행복길①공영주차장,대전광역시 대덕구 중리동 196-10,34,36.36067,127.4288143
중리행복길②공영주차장,대전광역시 대덕구 중리동 197-17,15,36.360553,127.427937
중리만남공영주차장,대전광역시 대덕구 중리동 180-1,21,36.36149254,127.4305618
비래동 제2공영주차장,대전광역시 대덕구 비래동 412-2,31,36.3661888,127.4475162
화동,울산광역시 북구 화봉동 365,95,35.59120863,129.373017
중리구봉공영주차장,대전광역시 대덕구 중리동 164-5,30,36.361489,127.427149
용호마을테마먹거리촌공영주차장,대전광역시 대덕구 용호동 44-2,47,36.4483128,127.4513285
한촌공원 주차장,대전광역시 대덕구 중리동 223-1,50,36.3572819,127.4208779
비래동로 31번길 공영주차장,대전광역시 대덕구 비래동 128-4,10,36.3567546,127.4498592
비래동로 23번길 공영주차장,대전광역시 대덕구 비래동 128-10,26,36.356673,127.448974
엑스포공원황소주차장,전라남도 함평군 함평읍 내교리 828-56,485,35.059385,126.521079
엑스포공원나비주차장,전라남도 함평군 함평읍 기각리 1100-1,2800,35.05529964,126.526509
화양근린공원주차장,전라남도 함평군 함평읍 수호리 110,50,35.054102,126.514599
나비수산앞 무료주차장,전라남도 함평군 함평읍 내교리 218-13,30,35.064125,126.520727
천변주차장,전라남도 함평군 함평읍 기각리 264,30,35.06351118,126.524006
농협하나로마트,전라남도 함평군 함평읍 내교리 193-3,50,35.06225737,126.5212079
함평천지한우프라자,전라남도 함평군 함평읍 내교리 87-5,90,35.060671,126.519971
새각단주차장,대구광역시 달서구 대곡동 639,13,35.79989859,128.5288501
토토볼링장앞,부산광역시 영도구 대평동1가 162-1,24,35.08988328,129.0358092
선용품유통센터앞,부산광역시 영도구 남항동2가 273-1,26,35.08909927,129.0392675
남항방파제,부산광역시 영도구 남항동3가 141-37,123,35.08558483,129.034834
절영해안산책로앞,부산광역시 영도구 영선동4가 186-101,122,35.0811807,129.0412093
봉래동물양장,부산광역시 영도구 봉래동1가 1,48,35.09453741,129.0387845
인제병원앞,부산광역시 영도구 봉래동1가 208-1,25,35.0947933,129.0413566
해양로변,부산광역시 영도구 청학동 1-54,24,35.09221782,129.0704607
태종보세장치장옆,부산광역시 영도구 청학동 1-49,56,35.0910889,129.0718759
하늘전망대앞,부산광역시 영도구 동삼동 산149-4,28,35.07447027,129.0541446
금산동,경기도 안성시 금산동 191-2,9,37.0149446,127.2697082
명륜도로(중앙3-3호선),경기도 안성시 명륜동 157-2,4,37.01421655,127.2741274
월명동 3,전라북도 군산시 영화동 16-20,260,35.989094,126.709658
동련사앞공영주차장,경상북도 의성군 의성읍 도동리 806-2,22,36.349951,128.704775
문소1길노상주차장,경상북도 의성군 의성읍 중리리 708-1,51,36.354666,128.700168
군청후문노상주차장,경상북도 의성군 의성읍 후죽리 509-8,24,36.352993,128.697115
동서2길1주차장,경상북도 의성군 의성읍 후죽리 720,19,36.350878,128.696058
동서2길2주차장,경상북도 의성군 의성읍 후죽리 602-1,33,36.350748,128.697864
후죽4길주차장,경상북도 의성군 의성읍 후죽리 508-1,84,36.353115,128.696668
문소2길주차장,경상북도 의성군 의성읍 도동리 951,15,36.34783062,128.698771
중앙길노상주차장,경상북도 의성군 의성읍 도동리 921-5,20,36.347681,128.697619
동서1길1주차장,경상북도 의성군 의성읍 상리리 711,14,36.349856,128.701298
공영노상주차장,경상북도 상주시 서문동5-4,0,36.419139,128.159041
1-2 은혜예식장뒤,경기도 이천시 중리동 20-4,24,37.280236,127.439217
1-3 한아름공원앞(이마트),경기도 이천시 중리동 21-1,21,37.27998092,127.439861
2-1 관고전통시장입구앞,경기도 이천시 창전동 155,17,37.280561,127.440672
2-2 이천성당앞,경기도 이천시 중리동 178-5,24,37.28005602,127.441081
2-3 주차장사무실앞,경기도 이천시 중리동 180-2,14,37.2802784,127.4422167
주안3동제12노외주차장,인천광역시 미추홀구 주안동 866-118,48,37.44453223,126.672004
주안4동제1노외주차장,인천광역시 미추홀구 주안동 417-19,12,37.453735,126.6833049
주안4동제2노외주차장,인천광역시 미추홀구 주안동 311-2,19,37.45563426,126.6874063
주안4동제4노외주차장,인천광역시 미추홀구 주안동 1511-25,10,37.453139,126.685359
주안4동제5노외주차장,인천광역시 미추홀구 주안동 1474-62,8,37.45351905,126.681849
천선일반산단 공영주차장(1),경상남도 창원시 성산구 성주동 83-2,34,35.186537,128.7073981
천선일반산단 공영주차장(2),경상남도 창원시 성산구 성주동 89-4,34,35.1843428,128.7065007
성주동 111-1 임시공영주차장,경상남도 창원시 성산구 성주동 111-1,28,35.19972189,128.7107789
반지동 49-4 임시공영주차장,경상남도 창원시 성산구 반지동 49-4,11,35.241741,128.663059
사파동 63-8 임시공영주차장,경상남도 창원시 성산구 사파동 63-8,8,35.224312,128.702668
중앙동 4-2 임시공영주차장,경상남도 창원시 성산구 중앙동 4-2,8,35.229472,128.676009
반지동 56-23 임시공영주차장,경상남도 창원시 성산구 반지동 56-23,6,35.240439,128.5320849
상남동 105-7 임시공영주차장,경상남도 창원시 성산구 상남동 105-7,8,35.215343,128.5320849
남경지구 제2공영주차장,대전광역시 대덕구 신탄진동 295-128,16,36.4428146,127.4305965
남경지구 제3공영주차장,대전광역시 대덕구 신탄진동 295-137,12,36.4429067,127.4313934
송촌도서관 주차장,대전광역시 대덕구 송촌동 165,39,36.360082,127.4401573
벌말지구 주차장,대전광역시 대덕구 미호동 220-6,18,36.4671888,127.4708973
중리미래공영주차장,대전광역시 대덕구 중리동 363-23,51,36.3656212,127.4244456
용호동주차장,대전광역시 대덕구 용호동 177-1,8,36.4361616,127.450766
제3산업단지,경기도 안성시 서운면 신능리 223,85,36.97343186,127.2671456
월정산업단지,경기도 안성시 일죽면 월정리 1839,10,37.08581056,127.4579104
중앙대,경기도 안성시 대덕면 내리 407,131,37.01192657,127.2258101
비룡초교 정문,경기도 안성시 석정동 332-1,6,37.01428231,127.2618573
한경대 노외,경기도 안성시 석정동 338-3,23,37.00982933,127.2656528
서운공영주차장,경기도 안성시 서운면 신촌리 12-8,35,36.94268926,127.2585401
봉남동,경기도 안성시 봉남동 9-3,6,37.00552789,127.2758442
고월마을 주차장,전라북도 익산시 함라면 다망리 567-4,17,36.01769599,126.9125576
모듈화산업단지제2,울산광역시 북구 효문동 986,145,35.57096545,129.3761791
울산아파트형공장,울산광역시 북구 효문동 818,46,35.56720463,129.3684813
연암,울산광역시 북구 연암동 322-2,8,35.58383213,129.368611
상방,울산광역시 북구 연암동 435-4,6,35.58215043,129.3659003
화봉,울산광역시 북구 화봉동 450-1,25,35.58855465,129.3678408
안영동제2노외,대전광역시 중구 안영동 697,75,36.28529788,127.3825142
안영동제3노외,대전광역시 중구 안영동 663,26,36.2905556,127.3797022
침산동제1노외,대전광역시 중구 침산동 360,176,36.28716232,127.3909063
석교동제1노외,대전광역시 중구 석교동 244-7,7,36.30717787,127.4368931
대흥동제1노외,대전광역시 중구 대흥동 125-1,144,36.32584044,127.4291892
으능정이상점가 고객주차장,대전광역시 중구 은행동 170-8,35,36.32704845,127.4282661
오류동제1노외,대전광역시 중구 오류동 175-7,7,36.32320782,127.4099592
오류동제2노외,대전광역시 중구 오류동 149-3,24,36.32376733,127.4102098
문창시장공영주차장,대전광역시 중구 문창동 116-8,61,36.31561672,127.4384886
유천시장공영주차장,대전광역시 중구 유천동 211-5,53,36.31692977,127.3966599
선화동제2노외,대전광역시 중구 선화동 236-8,33,36.3291468,127.4220455
대흥동제3노외,대전광역시 중구 대흥동 452-30,53,36.32463693,127.4237318
대흥동제5노외,대전광역시 중구 대흥동 452-74,25,36.32411911,127.4247484
태평2동제3노외,대전광역시 중구 태평동 378-29,23,36.32686868,127.3940601
중산산업단지2(1),울산광역시 북구 중산동 1270-3,30,35.65603689,129.3548786
중산산업단지2(2),울산광역시 북구 중산동 1266-4,40,35.66125813,129.352228
중산산업단지2(3),울산광역시 북구 중산동 1263-5,40,35.66377126,129.3523588
매곡푸르지오,울산광역시 북구 매곡동 844,14,35.64583505,129.3540105
약수초등학교,울산광역시 북구 중산동 1178-37,22,35.64796667,129.3423384
약수,울산광역시 북구 중산동 1104-1,24,35.64794629,129.3417453
달천농공단지1,울산광역시 북구 달천동 212-8,35,35.63431766,129.3157271
달천농공단지2,울산광역시 북구 달천동 207-5,73,35.64796025,129.3421099
편백산림욕장1,울산광역시 북구 달천동 산160-2,38,35.64796667,129.3423419
편백산림욕장2,울산광역시 북구 달천동 892-131,100,35.64797086,129.3419665
천곡동공영,울산광역시 북구 천곡동 551-2,20,35.63942481,129.3291374
천곡초교,울산광역시 북구 천곡동 553-2,20,35.63911451,129.3303026
구암,울산광역시 북구 어물동 272-1,43,35.57232774,129.4520449
금천부설,울산광역시 북구 당사동 527-8,9,35.58027866,129.452663
구유동일원,울산광역시 북구 구유동 355-3,60,35.61345358,129.4527776
강동산음,울산광역시 북구 산하동 965-2,27,35.62421823,129.4435123
강동산하(1),울산광역시 북구 산하동 514-4,28,35.62657786,129.4421528
강동산하(2),울산광역시 북구 산하동 367-16,58,35.62695804,129.4420161
제2강동산하,울산광역시 북구 산하동 317-5,41,35.61345358,129.4527776
제3강동산하,울산광역시 북구 산하동 367-9,5,35.62858859,129.4413279
화암2,울산광역시 북구 산하동 957-4,20,35.6352307,129.4428604
모듈화산업단지제1,울산광역시 북구 연암동 1372,80,35.57973107,129.3733725
호계동 719-3,울산광역시 북구 호계동 719-3,16,35.62604159,129.3557075
호계동 375,울산광역시 북구 호계동 375,8,35.62732632,129.3576677
호계동 676-8,울산광역시 북구 호계동 676-8,5,35.62732632,129.3576677
호계동 283-6,울산광역시 북구 호계동 283-6,6,35.62860302,129.3555521
호계역1,울산광역시 북구 호계동 842-2,245,35.6212063,129.3552947
호계역2,울산광역시 북구 호계동 775-6,34,35.62502173,129.3518267
호계역3,울산광역시 북구 호계동 743-2,42,35.62538437,129.3524399
호계시장,울산광역시 북구 호계동 869-1,16,35.62361671,129.3557438
창평공영주차장,울산광역시 북구 창평동 1052-1,90,35.62361671,129.3557438
중산산업단지1,울산광역시 북구 중산동 1253-4,30,35.65471222,129.3564575
두실공영주차장,부산광역시 금정구 구서동 1052,66,35.25315811,129.0894003
범어사상마공영주차장,부산광역시 금정구 청룡동 439-1,115,35.2798631,129.0742632
구서동만남의광장공영주차장,부산광역시 금정구 구서동 481-1,107,35.24701759,129.094722
부곡4동삼차로공영주차장,부산광역시 금정구 부곡동 737-165,70,35.2165347,129.0950534
금정구청후문노상공영주차장,부산광역시 금정구 부곡동 78,13,35.24205404,129.0924545
SK아파트뒤노상공영주차장,부산광역시 금정구 부곡동 63-11,20,35.240511,129.0923931
선동공영주차장,부산광역시 금정구 청룡동 439-1,52,35.2798638,129.0742432
오륜동공영주차장,부산광역시 금정구 청룡동 439-1,47,35.2798638,129.0742432
시민행복주차장,경상북도 구미시 공단동 265-4,83,36.11572157,128.4247777
시민행복주차장,경상북도 구미시 공단동 265-6,77,36.11572157,128.4247777
고잔동 주택가주차장,경기도 안산시 단원구 고잔동 619-5,10,37.331611,126.831704
고잔동 주택가주차장,경기도 안산시 단원구 고잔동 628-3,10,37.333146,126.830564
고잔동 주택가주차장,경기도 안산시 단원구 고잔동 656-9,13,37.328317,126.821157
방아머리항 노외주차장,경기도 안산시 단원구 대부북동 1955-1,22,37.296363,126.574435
평화동(적십자앞) 마을공동주차장 설치공사,경상북도 안동시 평화동 395-51,6,36.56914109,128.7119565
운안동(명성한마음타운앞) 마을공동주차장,경상북도 안동시 운안동 348-2,13,36.57215958,128.7120513
풍산읍 하리리 일성당앞 마을공동주차장,"경상북도 안동시 풍산읍 하라리 2, 3-1",15,36.59003313,128.5823999
명륜동 시청 후문 마을공동주차장 설치공사,경상북도 안동시 명륜동 338-4,8,36.56913234,128.7297654
용상동 중들제일 경로당앞 마을공동주차장,경상북도 안동시 용상동 154-10,8,36.54447054,128.8112341
금곡동 서부파출소 건너편 마을공동주차장,경상북도 안동시 금곡동 133-13,2,36.57104882,128.7199179
용상동(현대2차동편) 마을 공동 주차장,경상북도 안동시 용상동 600-23,8,36.55320302,128.7649915
태화동 태화오거리주변 마을공동주차장,"경상북도 안동시 태화동 196-14, 197-1",9,36.56591953,128.7126642
태화동 태화경로당 주변 마을공동주차장,경상북도 안동시 태화동 230-14,3,36.55921902,128.7119099
안기동 소백경로당 주변 마을공동주차장,경상북도 안동시 안기동 242-98,7,36.57718988,128.7162989
염포마을공동,울산광역시 북구 염포동 307-3,50,35.53621717,129.3929187
매곡1산업단지,울산광역시 북구 매곡동 349-4,141,35.64717039,129.3637831
매곡2산업단지,울산광역시 북구 매곡동 875-3,27,35.64743093,129.3635336
매곡3산업단지(1),울산광역시 북구 매곡동 884-5,109,35.64065413,129.3666313
매곡3산업단지(2),울산광역시 북구 매곡동 885-7,34,35.63736828,129.3678781
매곡3산업단지(3),울산광역시 북구 매곡동 887-4,16,35.64187509,129.3686396
신천공영주차장,울산광역시 북구 신천동 344-5,55,35.63033721,129.349609
신천동 331,울산광역시 북구 신천동 331,15,35.63193123,129.3521308
동백공원공영주차장,부산광역시 해운대구 우동 721번지,129,35.1552763,129.151517
두류3동마을공영주차장,대구광역시 달서구 두류동 637-7,23,35.85183305,128.5527505
죽전동마을공영주차장,대구광역시 달서구 와룡로57길 65,23,35.85793957,128.5335616
월촌공원주차장주차장,대구광역시 달서구 상인동 1559,157,35.81277938,128.5489485
서남신시장공영주차장,대구광역시 달서구 감삼동 63-8,40,35.85356845,128.5441484
본동2공영주차장,대구광역시 달서구 본동 867-1,11,35.83444078,128.5410723
용산2동마을공영주차장,대구광역시 달서구 용산동 440-4,20,35.85524455,128.5218639
월촌역시장공영주차장,대구광역시 달서구 송현동 1949-21,26,35.82227037,128.5489586
송현2동마을공영주차장,대구광역시 달서구 송현동 496-1,42,35.83245853,128.5475773
달비공원 공영주차장,대구광역시 달서구 상인동 1594,47,35.80720022,128.559447
죽전동제2공영주차장,대구광역시 달서구 용산동 931-4,35,35.85778569,128.5295581
달서시장 공영주차장,대구광역시 달서구 본리동 110-5,103,35.84101447,128.5431667
진천1공영주차장,대구광역시 달서구 진천동 808-120,23,35.80902652,128.5182285
죽전3공영주차장,대구광역시 달서구 죽전동 394-5,12,35.85613748,128.5341933
용산2동2공영주차장,대구광역시 달서구 용산동 13,35,35.86341693,128.5243106
한서주차장,대구광역시 달서구 대곡동 809-7,22,35.86156265,128.5058539
한동주차장,대구광역시 달서구 이곡동 1325,10,35.86155977,128.505848
배실공원 공영주차장,대구광역시 달서구 이곡동 1319-1,64,35.86269431,128.5048628
월광주차장,대구광역시 달서구 도원동 1083,79,35.79880604,128.548286
본동1공영주차장,대구광역시 달서구 학산로19길 73,33,35.83567319,128.5358843
신당1공영주차장,대구광역시 달서구 신당동 1749-1,14,35.85896865,128.4988307
장기동마을공영주차장,대구광역시 달서구 장기동 231,19,35.84770723,128.5187356
청소년수련관공영주차장,대구광역시 달서구 상인동 1593,195,35.80789636,128.5582315
상인2동공영주차장,대구광역시 달서구 상원로 27,11,35.81253072,128.5362595
송현1동1공영주차장,대구광역시 달서구 송현동 1970-15,10,35.82507638,128.5542281
월곡공영주차장,대구광역시 달서구 상인동 899,70,35.81851457,128.5474369
서남시장공영주차장,대구광역시 달서구 감삼동 54-6,30,35.8540262,128.5445723
성당동1공영주차장,대구광역시 달서구 성당동 638-2,30,35.84323561,128.5519346
본리동마을공영주차장,대구광역시 달서구 본리동 110-5,44,35.84101447,128.5431667
송현1동2공영주차장,대구광역시 달서구 송현동 1971-2,27,35.82569171,128.5539267
서촌공영주차장,대구광역시 달서구 용산동 429-1,76,35.86294972,128.5222112
두류1·2동1공영주차장,대구광역시 달서구 두류동 1252-4,40,35.85537922,128.5696105
월광수변공원주차장,대구광역시 달서구 도원동 928,184,35.79880604,128.548286
성당동2공영주차장,대구광역시 달서구 성당동 640-2,30,35.8442264,128.5528841
송현1동3공영주차장,대구광역시 달서구 송현동 1995-5,17,35.8292318,128.5547564
신당2공영주차장,대구광역시 달서구 성서서로73길 25,32,35.85733979,128.4983766
상원공영주차장,대구광역시 달서구 상인동 1584-1,62,35.80873582,128.550358
감삼동마을공영주차장,대구광역시 달서구 감삼동 203-6,26,35.84694221,128.5439076
두류1·2동2공영주차장,대구광역시 달서구 두류동 832-5,37,35.85690607,128.5723586
칠성농협앞주차장,대구광역시 북구 칠성동1가 163-1,32,35.8766329,128.6035994
삼양감속기앞주차장,대구광역시 북구 노원동2가 5-1,99,35.8928748,128.5772494
칠성시장남편주차장,대구광역시 북구 칠성동1가 276-165,33,35.87695466,128.6043758
일산해수욕장중앙,울산광역시 동구 일산동 963,290,35.494195,129.429257
방어동(20-41),울산광역시 동구 방어동 20-41,60,35.484068,129.431106
방어동(167-4),울산광역시 동구 방어동 167-4,10,35.485311,129.430592
화정동(871-13),울산광역시 동구 화정동 871-13,7,35.491937,129.421495
방어동(1009-6),울산광역시 동구 방어동 1009-6,50,35.482148,129.408353
구견인사무소,울산광역시 동구 방어동 913-15,44,35.489907,129.418646
방어동(970-2),울산광역시 동구 방어동 970-2,30,35.485193,129.409274
남목3동주차장,울산광역시 동구 동부동 338-2,6,35.5440204,129.429429
화정공영지하주차장,울산광역시 동구 화정동 857-1,136,35.495881,129.422597
우리,서울특별시 양천구 목동 907-8,40,37.536671,126.879154
광장,서울특별시 양천구 목동 907-19,42,37.535507,126.879401
도서관,서울특별시 양천구 목동 905-32,48,37.533463,126.876624
한두,서울특별시 양천구 목동 610-5,39,37.548771,126.866094
목3동 해운,서울특별시 양천구 목동 711-6,64,37.542031,126.865111
목2동 월촌,서울특별시 양천구 목동 525,79,37.546036,126.874808
양천사회단체봉사센터,서울특별시 양천구 목동 905-29,20,37.531823,126.875401
산본천공영주차장,경기도 군포시 산본동 100,74,37.37204757,126.941727
금당로 노상주차장,경기도 군포시 당동 864,81,37.355235,126.940561
당동3공영주차장,경기도 군포시 당동 973-4,81,37.34411593,126.939131
고랑치기공영주차장,경기도 군포시 부곡동 1246-1,165,37.32664758,126.941678
산본시장 임시주차장,경기도 군포시 산본동 251-5,34,37.37016353,126.93853
1-1 관고교앞,경기도 이천시 관고동 15-17,20,37.28047014,127.438162
형제주차장,서울특별시 구로구개봉동403-231,31,37.49111405,126.8562847
원진주차장,서울특별시 구로구개봉동403-231,8,37.49354979,126.8558141
대건주차장,서울특별시 구로구개봉동247-4,11,37.49530106,126.8502246
개봉역 1번출구 주차장,서울특별시 구로구개봉동203-27,6,37.4944679,126.8580288
고척주차장,서울특별시 구로구고척동253-56,7,37.50376234,126.8490404
세창주차장,서울특별시 구로구구로동717-8,8,37.48732802,126.8841796
대신주차장,서울특별시 구로구 구로동83-5,10,37.49452568,126.8883525
새서울주차장(태영주차장),서울특별시 구로구구로동317-192,20,37.49184545,126.8895958
부곡2동공영주차장,부산광역시 금정구 부곡동 294-20,78,35.22773109,129.0923915
부곡4동공영주차장,부산광역시 금정구 부곡동 768-39,32,35.21857591,129.0935978
온천장북측공영주차장,부산광역시 금정구 부곡동 896-3,185,35.2296176,129.0893411
남산동꽃님공영주차장,부산광역시 금정구 남산동 967-1,46,35.2718193,129.0869705
구서1동공영주차장,부산광역시 금정구 구서동 87-50,43,35.247916,129.0893642
안산세무서뒤,경기도 안산시 단원구 고잔동 545-1,144,37.320678,126.827362
안산상공회의소뒤,경기도 안산시 단원구 고잔동 547-1,135,37.318755,126.826878
상하수도사업소앞,경기도 안산시 단원구 고잔동 550-1,146,37.320334,126.828812
여성회관뒤,경기도 안산시 단원구 고잔동 552-1,138,37.318708,126.828685
중앙역사거리,경기도 안산시 단원구 고잔동 554-2,38,37.316911,126.832413
신원프라자뒤,경기도 안산시 단원구 고잔동 556-1,131,37.320138,126.832628
우성여성병원앞,경기도 안산시 단원구 고잔동 560-1,127,37.318523,126.832509
롯데백화점앞,경기도 안산시 단원구 고잔동 566,107,37.318395,126.835155
고잔메가넥스12앞,경기도 안산시 단원구 고잔동 566,114,37.318348,126.835157
고잔동 광신연립 주차장,경기도 안산시 단원구 고잔동 611-1,25,37.329578,126.828294
고잔동 주택가주차장,경기도 안산시 단원구 고잔동 618-7,10,37.330813,126.832343
구로4동 주택가 공동,서울특별시 구로구 구로동 741-44,198,37.48987838,126.8865593
가리봉주차장,서울특별시 구로구가리봉동125-15,10,37.48025074,126.8890205
시장주차장,서울특별시 구로구가리봉동126-37,69,37.48127054,126.8888652
로타리주차장,서울특별시 구로구가리봉동127-10,10,37.47980485,126.8900975
영일주차장,서울특별시 구로구가리봉동10-4,28,37.48545282,126.8830564
대성주차장,서울특별시 구로구개봉동247-14,20,37.49507978,126.8486689
서대구로15길인근,대구광역시 서구 중리동 730,61,35.86900755,128.5481281
서대구로17길인근,대구광역시 서구 평리동 1621-29,19,35.86529733,128.5556148
서대구로25길인근,대구광역시 서구 중리동 730,25,35.86900755,128.5481281
고척1동 마을공동,서울특별시 구로구 고척동 52-54,88,37.50230634,126.863882
고척리본타운,서울특별시 구로구 고척동 156,66,37.50512779,126.8573617
개봉1동 마을공동,서울특별시 구로구 개봉동 416-2,56,37.505741,126.844893
개봉1동 노외,서울특별시 구로구 개봉동 134-8,134,37.50024027,126.8511374
오류1동 텃골,서울특별시 구로구 오류동 6-11,84,37.4954745,126.8391873
고척근린공원 지하,서울특별시 구로구 고척동 산 9-14,199,37.50658242,126.8532783
초량3동-업무지5구간,부산광역시 동구 초량동 1147-2,5,35.12179798,129.0429517
초량3동-업무지6구간,부산광역시 동구 초량동 1168-13,3,35.12032181,129.0441278
초량3동-업무지7구간,부산광역시 동구 초량동 1156-11,4,35.12379588,129.0452479
초량3동-업무지8구간,부산광역시 동구 초량동 1170,4,35.12017112,129.0428057
제1지하도옆,부산광역시 동구 초량동 1188-1,20,35.11900702,129.0434347
제7기동대앞고가도로밑,부산광역시 동구 좌천동 1119,29,35.12974704,129.0544179
조선생명뒤,부산광역시 동구 초량동 1150-1,22,35.12613367,129.0470526
좌천1동공영,부산광역시 동구 좌천동 808-12,52,35.13327668,129.0505487
좌천4동공영,부산광역시 동구 좌천동 952-2,49,35.13472964,129.0464824
진로창고옆,부산광역시 동구 초량동 1168-13,16,35.11991224,129.0431941
차이나타운,부산광역시 동구 초량동 545-7,69,35.1152382,129.0379841
초량2동공영,부산광역시 동구 초량동 865,46,35.11859783,129.0336895
초량6동공영,부산광역시 동구 좌천동 689-94,47,35.13134562,129.0485696
초량6동제2공영주차장,부산광역시 동구 초량동 793-7,42,35.12202711,129.0361922
남망산밑주차장,경상남도 통영시 동호동 379,62,34.84212371,128.4266037
별관청사공영주차장,서울특별시 영등포구 선유동1로 80,61,37.5286217,126.894421
경부제3녹지 공영주차장,서울특별시 영등포구 영등포로 405,143,37.51316522,126.9241035
구로2동 마을공동,서울특별시 구로구 구로동 317-187,81,37.491491,126.8883001
구로3동 마을공동,서울특별시 구로구 구로동 797-1,20,37.48502191,126.888408
신도림역 환승,서울특별시 구로구 구로동 1-4,65,37.50786415,126.8922188
구로아트밸리 지하,서울특별시 구로구 구로동 102,245,37.49710368,126.889559
구로5동 마을공동,서울특별시 구로구 구로동 549-73,81,37.500809,126.886021
구로리공원 지하,서울특별시 구로구 구로동 139-82,203,37.4904165,126.891578
하늘공원 주차장,서울특별시 구로구 가리봉동 1-11,198,37.48723817,126.8808103
가르뱅이로9길인근,대구광역시 서구 상리동 239-9,16,35.881588,128.5322859
가르뱅이로인근,대구광역시 서구 상리동 5-28,52,35.8831476,128.5295919
새방로25길인근,대구광역시 서구 상리동 554-6,21,35.8678521,128.5289992
새방로27길인근,대구광역시 서구 상리동 472-1,3,35.868108,128.5292601
고성로23길인근,대구광역시 서구 원대동1가 128,24,35.88185718,128.5776549
고성로25길인근,대구광역시 서구 원대동1가 128,43,35.88185718,128.5776549
달서천로80길인근,대구광역시 서구 원대동1가 466,15,35.8803711,128.5761861
달서천로인근,대구광역시 서구 원대동1가 258,53,35.880231,128.5778415
와룡로100길인근,대구광역시 서구 이현동 42-175,44,35.87814178,128.5407136
국채보상로34안길인근,대구광역시 서구 중리동 42-1,68,35.8685028,128.5519628
국채보상로36길인근,대구광역시 서구 중리동 730,186,35.86900755,128.5481281
당산로69길인근,대구광역시 서구 중리동 1083,37,35.86820695,128.5460938
구.재건중학교 주차장,강원도 철원군 동송읍 이평리 840-4,49,38.206645,127.217241
동송초교주차장,강원도 철원군 동송읍 이평리 838-49,14,38.203947,127.217124
와수삼거리주차장,강원도 철원군 서면 와수리 1139-9,26,38.237406,127.436828
와수시장주차장,강원도 철원군 서면 와수리 1158-1,52,38.238381,127.439047
우성연립주차장,강원도 철원군 서면 와수리 1160-3,96,38.238385,127.439052
무금천주차장,강원도 철원군 서면 와수리 915-1,11,38.241578,127.442247
와수출장소주차장,강원도 철원군 서면 와수리 1171-114,13,38.238491,127.439861
문화마을주차장,강원도 철원군 서면 와수리 2410-4,40,38.243206,127.437601
와수2리 주차장,강원도 철원군 서면 와수리 1216-108,43,38.239032,127.436952
와수1리 주차장,강원도 철원군 서면 와수리 916-1,41,38.241385,127.441662
자등리(김화농협)주차장,강원도 철원군 서면 자등리 1823-61,58,38.165887,127.413116
신원아파트주차장,강원도 철원군 서면 와수리 871-13,14,38.244045,127.445038
육단리주차장,강원도 철원군 근남면 육단리 280-2,25,38.23779489,127.4695784
갈말유명아파트주차장,강원도 철원군 갈말읍 군탄리 1032,82,38.1483993,127.3015719
동송초교앞주차장,강원도 철원군 동송읍 이평리 708-20,25,38.2052279,127.2193794
고잔2동노외주차장,경기도 안산시 단원구 고잔동 44-1,55,37.330654,126.840647
우경조병원앞,경기도 안산시 단원구 고잔동 531-1,50,37.317615,126.832103
중앙하이츠빌앞,경기도 안산시 단원구 고잔동 539-11,66,37.317752,126.842245
동원빌딩앞,경기도 안산시 단원구 고잔동 540,86,37.317929,126.837242
금산빌딩앞,경기도 안산시 단원구 고잔동 540-6,197,37.317754,126.840221
주전새마을다리,울산광역시 동구 주전동 32-5,59,35.565276,129.455479
일산해수욕장중앙,울산광역시 동구 일산동 961-3,290,35.494195,129.429257
일산해수욕장중앙,울산광역시 동구 일산동 962,290,35.494195,129.429257
도화1동제3노상주차장,인천광역시 미추홀구 도화동 434-2,31,37.45926294,126.673865
주안1동제1노상주차장,인천광역시 미추홀구 미추홀대로 716(주안동),17,37.46129237,126.680557
주안1동제2노상주차장,인천광역시 미추홀구 주안로 122(주안동),95,37.46356973,126.6831111
주안1동제3노상주차장,인천광역시 미추홀구 주안동 89-9,34,37.46042855,126.685068
주안1동제4노상주차장,인천광역시 미추홀구 주안동 209,72,37.46110484,126.6778937
주안1동제5노상주차장,인천광역시 미추홀구 주안동 271-14,29,37.45955169,126.684647
주안5동제2노상주차장,인천광역시 미추홀구 주염로 58(주안동),83,37.47026053,126.6837689
주안5동제3노상주차장,인천광역시 미추홀구 주안동 25-81,92,37.46597258,126.678792
주안5동제4노상주차장,인천광역시 미추홀구 주안동 30-3,30,37.465565,126.6804655
주전동(10),울산광역시 동구 주전동 10,8,35.5677078,129.4515484
주전북구경계,울산광역시 동구 주전동 548-2,73,35.571413,129.452272
주전북구경계,울산광역시 동구 주전동 548-3,73,35.571413,129.452272
화정동(105),울산광역시 동구 화정동 105,40,35.499667,129.416891
방어동(325-4),울산광역시 동구 방어동 325-4,9,35.482752,129.423508
화정동(600-16),울산광역시 동구 화정동 600-16,12,35.501329,129.423431
화정동(607-30),울산광역시 동구 화정동 607-30,8,35.498777,129.424429
주전군부대앞,울산광역시 동구 주전동 714-10,83,35.552267,129.456103
주전군부대앞,울산광역시 동구 주전동 714-4,83,35.552267,129.456103
동축사입구,울산광역시 동구 동부동 425-2,81,35.546832,129.424963
내동 1121번지 임시공영주차장,충청남도 논산시 내동 1121,7,36.18030945,127.1051888
내동 1201번지 임시공영주차장,충청남도 논산시 내동 1201,20,36.1789372,127.1060826
연무읍 안심리 7-22번지 임시공영주차장,충청남도 논산시 연무읍 안심리 7-22,6,36.12996934,127.0989363
학익1동 제2노상주차장,인천광역시 미추홀구 학익동 587-72,134,37.44201046,126.6356361
학익2동제1노상주차장,인천광역시 미추홀구 학익동 251-5,31,37.44196781,126.6676293
학익2동제2노상주차장,인천광역시 미추홀구 학익동 630,31,37.4410188,126.672561
도화1동제1노상주차장,인천광역시 미추홀구 도화동 373,54,37.460505,126.676701
